{
  "Dfa - Kontynentalny gorący": [
    {
      "id": "00FAY",
      "name": "Holden Agdm",
      "latitude": 53.19,
      "longitude": -112.25,
      "elevation": 688
    },
    {
      "id": "00TG6",
      "name": "Athabasca 1",
      "latitude": 54.72,
      "longitude": -113.29,
      "elevation": 515
    },
    {
      "id": "02FNZ",
      "name": "Kananaskis",
      "latitude": 51.03,
      "longitude": -115.03,
      "elevation": 1391
    },
    {
      "id": "033E7",
      "name": "Keoma AGCM",
      "latitude": 51.19,
      "longitude": -113.63,
      "elevation": 945
    },
    {
      "id": "07QNC",
      "name": "Yorkton",
      "latitude": 51.26,
      "longitude": -102.46,
      "elevation": 498
    },
    {
      "id": "087BL",
      "name": "Midway",
      "latitude": 49.0,
      "longitude": -118.77,
      "elevation": 571
    },
    {
      "id": "0FD7Y",
      "name": "Cultus Lake",
      "latitude": 49.08,
      "longitude": -121.98,
      "elevation": 46
    },
    {
      "id": "0HNBB",
      "name": "Pender Harbour",
      "latitude": 49.63,
      "longitude": -124.03,
      "elevation": 64
    },
    {
      "id": "0JI0N",
      "name": "Cape St James",
      "latitude": 51.94,
      "longitude": -131.02,
      "elevation": 88
    },
    {
      "id": "0RN07",
      "name": "Entwistle",
      "latitude": 53.6,
      "longitude": -114.98,
      "elevation": 780
    },
    {
      "id": "0WQ7X",
      "name": "Verger",
      "latitude": 50.9,
      "longitude": -111.96,
      "elevation": 723
    },
    {
      "id": "11FIQ",
      "name": "Saskatoon RCS",
      "latitude": 52.17,
      "longitude": -106.72,
      "elevation": 504
    },
    {
      "id": "13U8X",
      "name": "Metchosin",
      "latitude": 48.37,
      "longitude": -123.56,
      "elevation": 164
    },
    {
      "id": "182SS",
      "name": "Cortes Island Tiber Bay",
      "latitude": 50.07,
      "longitude": -124.95,
      "elevation": 15
    },
    {
      "id": "19P4J",
      "name": "Sedgewick Town",
      "latitude": 52.78,
      "longitude": -111.7,
      "elevation": 663
    },
    {
      "id": "1AY3V",
      "name": "Langara Island RCS",
      "latitude": 54.26,
      "longitude": -133.06,
      "elevation": 47
    },
    {
      "id": "1BASZ",
      "name": "Clinton",
      "latitude": 51.14,
      "longitude": -121.5,
      "elevation": 1057
    },
    {
      "id": "1GSX5",
      "name": "Ispas",
      "latitude": 53.85,
      "longitude": -111.84,
      "elevation": 655
    },
    {
      "id": "1I9Z5",
      "name": "Buffalo Lake",
      "latitude": 51.71,
      "longitude": -121.08,
      "elevation": 989
    },
    {
      "id": "1KLRH",
      "name": "Pilger",
      "latitude": 52.42,
      "longitude": -105.15,
      "elevation": 552
    },
    {
      "id": "1MLSD",
      "name": "Hixon",
      "latitude": 53.53,
      "longitude": -122.7,
      "elevation": 551
    },
    {
      "id": "1OIPT",
      "name": "Saanichton Mt Newton",
      "latitude": 48.6,
      "longitude": -123.43,
      "elevation": 43
    },
    {
      "id": "1P5W9",
      "name": "William Head",
      "latitude": 48.34,
      "longitude": -123.54,
      "elevation": 12
    },
    {
      "id": "1PJ2B",
      "name": "Kelliher",
      "latitude": 51.26,
      "longitude": -103.75,
      "elevation": 676
    },
    {
      "id": "1SPOC",
      "name": "Merritt Stp",
      "latitude": 50.11,
      "longitude": -120.8,
      "elevation": 609
    },
    {
      "id": "1USZL",
      "name": "Kinikinik",
      "latitude": 54.56,
      "longitude": -112.98,
      "elevation": 629
    },
    {
      "id": "21SK1",
      "name": "St. Albert Research Station",
      "latitude": 53.69,
      "longitude": -113.62,
      "elevation": 687
    },
    {
      "id": "23234",
      "name": "Cariboo Lodge",
      "latitude": 52.72,
      "longitude": -119.47,
      "elevation": 1096
    },
    {
      "id": "23C2X",
      "name": "Patricia AGCM",
      "latitude": 50.74,
      "longitude": -111.62,
      "elevation": 726
    },
    {
      "id": "23LJZ",
      "name": "Mountain View Village",
      "latitude": 49.13,
      "longitude": -113.59,
      "elevation": 1308
    },
    {
      "id": "2B872",
      "name": "Entrance Island",
      "latitude": 49.21,
      "longitude": -123.81,
      "elevation": 7
    },
    {
      "id": "2F49I",
      "name": "Rock Point",
      "latitude": 51.15,
      "longitude": -107.26,
      "elevation": 725
    },
    {
      "id": "2KC80",
      "name": "Carnwood",
      "latitude": 53.23,
      "longitude": -114.65,
      "elevation": 793
    },
    {
      "id": "2L0N3",
      "name": "Sandspit",
      "latitude": 53.25,
      "longitude": -131.81,
      "elevation": 6
    },
    {
      "id": "2M8VC",
      "name": "The Pas Airport",
      "latitude": 53.97,
      "longitude": -101.09,
      "elevation": 271
    },
    {
      "id": "2OFV8",
      "name": "Quatsino",
      "latitude": 50.53,
      "longitude": -127.65,
      "elevation": 3
    },
    {
      "id": "2U6R8",
      "name": "Cappon",
      "latitude": 51.07,
      "longitude": -110.8,
      "elevation": 758
    },
    {
      "id": "2UK4Z",
      "name": "Busby",
      "latitude": 54.0,
      "longitude": -113.89,
      "elevation": 701
    },
    {
      "id": "2WTKH",
      "name": "Smithers Airport",
      "latitude": 54.82,
      "longitude": -127.19,
      "elevation": 518
    },
    {
      "id": "2ZZ1L",
      "name": "Sparwood Airport",
      "latitude": 49.75,
      "longitude": -114.88,
      "elevation": 1138
    },
    {
      "id": "32TJW",
      "name": "Lethbridge Agtech AGCM",
      "latitude": 49.65,
      "longitude": -112.76,
      "elevation": 918
    },
    {
      "id": "356D4",
      "name": "Cape Beale Light",
      "latitude": 48.79,
      "longitude": -125.22,
      "elevation": 26
    },
    {
      "id": "3918R",
      "name": "Lennard Island",
      "latitude": 49.11,
      "longitude": -125.92,
      "elevation": 11
    },
    {
      "id": "3CB36",
      "name": "Sonningdale",
      "latitude": 52.32,
      "longitude": -107.77,
      "elevation": 716
    },
    {
      "id": "3EA1V",
      "name": "100 Mile House 6ne",
      "latitude": 51.68,
      "longitude": -121.22,
      "elevation": 928
    },
    {
      "id": "3IPGR",
      "name": "Forestburg Plant Site",
      "latitude": 52.47,
      "longitude": -112.12,
      "elevation": 663
    },
    {
      "id": "3NQVP",
      "name": "Bassano AGCM",
      "latitude": 50.89,
      "longitude": -112.47,
      "elevation": 807
    },
    {
      "id": "3PTIV",
      "name": "Golden Airport",
      "latitude": 51.3,
      "longitude": -116.98,
      "elevation": 785
    },
    {
      "id": "3Y6TD",
      "name": "Bella Bella",
      "latitude": 52.19,
      "longitude": -128.16,
      "elevation": 43
    },
    {
      "id": "3Y77A",
      "name": "Cranbrook Airport",
      "latitude": 49.62,
      "longitude": -115.79,
      "elevation": 927
    },
    {
      "id": "3YPXV",
      "name": "Bickleigh",
      "latitude": 51.29,
      "longitude": -108.41,
      "elevation": 676
    },
    {
      "id": "41FV1",
      "name": "Stampede Pass",
      "latitude": 47.2765,
      "longitude": -121.3382,
      "elevation": 1209
    },
    {
      "id": "468T8",
      "name": "Windham",
      "latitude": 47.1,
      "longitude": -110.2,
      "elevation": 1337
    },
    {
      "id": "47TUX",
      "name": "Smithers Airport",
      "latitude": 54.83,
      "longitude": -127.18,
      "elevation": 523
    },
    {
      "id": "49HYF",
      "name": "Big Timber Airport",
      "latitude": 45.8065,
      "longitude": -109.9783,
      "elevation": 1369
    },
    {
      "id": "4F9K7",
      "name": "Peachland",
      "latitude": 49.78,
      "longitude": -119.72,
      "elevation": 345
    },
    {
      "id": "4JCBY",
      "name": "Hoey",
      "latitude": 52.85,
      "longitude": -105.78,
      "elevation": 473
    },
    {
      "id": "4Q4CU",
      "name": "Castlegar Bchpa Dam",
      "latitude": 49.34,
      "longitude": -117.77,
      "elevation": 435
    },
    {
      "id": "4QYUH",
      "name": "Red Lake",
      "latitude": 50.94,
      "longitude": -120.8,
      "elevation": 1162
    },
    {
      "id": "4X77V",
      "name": "Bowman Regional Airport",
      "latitude": 46.1655,
      "longitude": -103.3007,
      "elevation": 904
    },
    {
      "id": "5BGCA",
      "name": "Oliver Stp",
      "latitude": 49.18,
      "longitude": -119.54,
      "elevation": 297
    },
    {
      "id": "5EPY6",
      "name": "Medicine Hat",
      "latitude": 50.02,
      "longitude": -110.72,
      "elevation": 717
    },
    {
      "id": "5GX8O",
      "name": "Abbotsford Airport",
      "latitude": 49.03,
      "longitude": -122.36,
      "elevation": 59
    },
    {
      "id": "5H7MD",
      "name": "Cloverdale East",
      "latitude": 49.11,
      "longitude": -122.7,
      "elevation": 50
    },
    {
      "id": "5JKA3",
      "name": "Saanichton Cfia",
      "latitude": 48.62,
      "longitude": -123.42,
      "elevation": 61
    },
    {
      "id": "5LA6G",
      "name": "Crescent Spur",
      "latitude": 53.6,
      "longitude": -120.7,
      "elevation": 686
    },
    {
      "id": "5PPU4",
      "name": "Triple Island",
      "latitude": 54.29,
      "longitude": -130.88,
      "elevation": 21
    },
    {
      "id": "5Q26B",
      "name": "Lloydminster Airport",
      "latitude": 53.31,
      "longitude": -110.07,
      "elevation": 668
    },
    {
      "id": "5Q4PV",
      "name": "Sunnyside Municipal Airport",
      "latitude": 46.3271,
      "longitude": -119.9704,
      "elevation": 234
    },
    {
      "id": "5TROZ",
      "name": "University Of Alberta Metabolic Centre",
      "latitude": 53.52,
      "longitude": -113.53,
      "elevation": 668
    },
    {
      "id": "63SNJ",
      "name": "Finnegan AGCM",
      "latitude": 51.05,
      "longitude": -112.1,
      "elevation": 748
    },
    {
      "id": "64VJL",
      "name": "Sun Peaks Upper",
      "latitude": 50.9,
      "longitude": -119.92,
      "elevation": 2055
    },
    {
      "id": "69023",
      "name": "Whidbey Island / Ault Field",
      "latitude": 48.3518,
      "longitude": -122.656,
      "elevation": 14
    },
    {
      "id": "69033",
      "name": "Hood Canal Bridge / Rockford",
      "latitude": 45.6726,
      "longitude": -121.5365,
      "elevation": 195
    },
    {
      "id": "6A97D",
      "name": "Darfield",
      "latitude": 51.29,
      "longitude": -120.18,
      "elevation": 466
    },
    {
      "id": "6DYXK",
      "name": "Parkerview",
      "latitude": 51.4,
      "longitude": -103.27,
      "elevation": 637
    },
    {
      "id": "6I47P",
      "name": "Winfield",
      "latitude": 50.04,
      "longitude": -119.42,
      "elevation": 506
    },
    {
      "id": "6VEFW",
      "name": "Warner AGCM",
      "latitude": 49.28,
      "longitude": -112.16,
      "elevation": 1004
    },
    {
      "id": "6VENF",
      "name": "Macklin",
      "latitude": 52.33,
      "longitude": -109.95,
      "elevation": 671
    },
    {
      "id": "70454",
      "name": "Adak Island Airport",
      "latitude": 51.8667,
      "longitude": -176.6333,
      "elevation": 6
    },
    {
      "id": "70482",
      "name": "Nikolski",
      "latitude": 52.95,
      "longitude": -168.85,
      "elevation": 21
    },
    {
      "id": "70489",
      "name": "Unalaska Airport",
      "latitude": 53.9,
      "longitude": -166.5333,
      "elevation": 7
    },
    {
      "id": "71001",
      "name": "Callaghan Valley",
      "latitude": 50.1375,
      "longitude": -123.11,
      "elevation": 936
    },
    {
      "id": "71002",
      "name": "Callaghan Valley",
      "latitude": 50.1368,
      "longitude": -123.1131,
      "elevation": 860
    },
    {
      "id": "71003",
      "name": "Callaghan Valley",
      "latitude": 50.1472,
      "longitude": -123.1156,
      "elevation": 870
    },
    {
      "id": "71004",
      "name": "Cypress Bowl Freestyle / Lions Bay",
      "latitude": 49.3923,
      "longitude": -123.2076,
      "elevation": 969
    },
    {
      "id": "71005",
      "name": "Albert Hall AGCM",
      "latitude": 53.11,
      "longitude": -111.18,
      "elevation": 658
    },
    {
      "id": "71006",
      "name": "Alliance AGCM",
      "latitude": 52.32,
      "longitude": -111.78,
      "elevation": 737
    },
    {
      "id": "71007",
      "name": "Barons AGCM",
      "latitude": 50.03,
      "longitude": -113.22,
      "elevation": 967
    },
    {
      "id": "71009",
      "name": "Beiseker AGCM",
      "latitude": 51.38,
      "longitude": -113.36,
      "elevation": 896
    },
    {
      "id": "71010",
      "name": "Bellshill AGCM",
      "latitude": 52.58,
      "longitude": -111.47,
      "elevation": 721
    },
    {
      "id": "71011",
      "name": "Big Valley AGCM",
      "latitude": 52.0,
      "longitude": -112.8,
      "elevation": 870
    },
    {
      "id": "71012",
      "name": "Cadogan AGCM",
      "latitude": 52.33,
      "longitude": -110.51,
      "elevation": 690
    },
    {
      "id": "71014",
      "name": "Delburne AGCM",
      "latitude": 52.18,
      "longitude": -113.18,
      "elevation": 889
    },
    {
      "id": "71015",
      "name": "Milk River Ridge Reservoir",
      "latitude": 49.28,
      "longitude": -112.54,
      "elevation": 1305
    },
    {
      "id": "71016",
      "name": "Bullhorn Headwaters",
      "latitude": 49.15,
      "longitude": -113.55,
      "elevation": 1326
    },
    {
      "id": "71022",
      "name": "Prince Rupert",
      "latitude": 54.29,
      "longitude": -130.44,
      "elevation": 35
    },
    {
      "id": "71023",
      "name": "Jimmy Lake Awos",
      "latitude": 54.91,
      "longitude": -109.96,
      "elevation": 637
    },
    {
      "id": "71028",
      "name": "Tatlayoko Lake RCS",
      "latitude": 51.67,
      "longitude": -124.4,
      "elevation": 875
    },
    {
      "id": "71031",
      "name": "Discovery Island",
      "latitude": 48.42,
      "longitude": -123.23,
      "elevation": 19
    },
    {
      "id": "71032",
      "name": "Princeton CS",
      "latitude": 49.47,
      "longitude": -120.51,
      "elevation": 696
    },
    {
      "id": "71033",
      "name": "Chrome Island / Bowser",
      "latitude": 49.4667,
      "longitude": -124.6833,
      "elevation": 11
    },
    {
      "id": "71035",
      "name": "Linden AGCM",
      "latitude": 51.62,
      "longitude": -113.66,
      "elevation": 914
    },
    {
      "id": "71036",
      "name": "Kelp Reefs / Yacht Haven",
      "latitude": 48.5478,
      "longitude": -123.2356,
      "elevation": 0
    },
    {
      "id": "71037",
      "name": "Point Atkinson",
      "latitude": 49.33,
      "longitude": -123.26,
      "elevation": 14
    },
    {
      "id": "71038",
      "name": "Victoria / Central Saanich",
      "latitude": 48.5338,
      "longitude": -123.4591,
      "elevation": 154
    },
    {
      "id": "71042",
      "name": "Delta Burns Bog",
      "latitude": 49.13,
      "longitude": -123.0,
      "elevation": 3
    },
    {
      "id": "71047",
      "name": "Mannville AGCM",
      "latitude": 53.46,
      "longitude": -111.26,
      "elevation": 656
    },
    {
      "id": "71050",
      "name": "Puntzi Mountain",
      "latitude": 52.11,
      "longitude": -124.14,
      "elevation": 910
    },
    {
      "id": "71057",
      "name": "Mossleigh AGCM",
      "latitude": 50.67,
      "longitude": -113.35,
      "elevation": 965
    },
    {
      "id": "71061",
      "name": "Barrhead CS",
      "latitude": 54.09,
      "longitude": -114.45,
      "elevation": 648
    },
    {
      "id": "71065",
      "name": "Myrnam AGCM",
      "latitude": 53.72,
      "longitude": -111.11,
      "elevation": 580
    },
    {
      "id": "71070",
      "name": "Pakowki Lake AGCM",
      "latitude": 49.22,
      "longitude": -111.13,
      "elevation": 915
    },
    {
      "id": "71089",
      "name": "Ribstone South AGCM",
      "latitude": 52.59,
      "longitude": -110.34,
      "elevation": 644
    },
    {
      "id": "71100",
      "name": "Triple Island / Metlakatla",
      "latitude": 54.2947,
      "longitude": -130.8803,
      "elevation": 21
    },
    {
      "id": "71101",
      "name": "Sandspit Airport",
      "latitude": 53.25,
      "longitude": -131.81,
      "elevation": 6
    },
    {
      "id": "71102",
      "name": "Ethelda Bay",
      "latitude": 53.05,
      "longitude": -129.6833,
      "elevation": 10
    },
    {
      "id": "71103",
      "name": "Quesnel Airport",
      "latitude": 53.0333,
      "longitude": -122.5167,
      "elevation": 545
    },
    {
      "id": "71104",
      "name": "Williams Lake Airport",
      "latitude": 52.18,
      "longitude": -122.05,
      "elevation": 940
    },
    {
      "id": "71105",
      "name": "Pine Island Meteorological Aeronautical Presentation System",
      "latitude": 50.9833,
      "longitude": -127.7333,
      "elevation": 9
    },
    {
      "id": "71106",
      "name": "Tofino Airport",
      "latitude": 49.0833,
      "longitude": -125.7667,
      "elevation": 24
    },
    {
      "id": "71108",
      "name": "Abbotsford Airport",
      "latitude": 49.03,
      "longitude": -122.36,
      "elevation": 59
    },
    {
      "id": "71109",
      "name": "Port Hardy Airport",
      "latitude": 50.68,
      "longitude": -127.37,
      "elevation": 22
    },
    {
      "id": "71110",
      "name": "Alert Bay",
      "latitude": 50.5833,
      "longitude": -126.9333,
      "elevation": 59
    },
    {
      "id": "71111",
      "name": "Cape Scott Light",
      "latitude": 50.7833,
      "longitude": -128.4333,
      "elevation": 70
    },
    {
      "id": "71112",
      "name": "Amphitrite Point",
      "latitude": 48.9167,
      "longitude": -125.55,
      "elevation": 27
    },
    {
      "id": "71113",
      "name": "Agassiz RCS",
      "latitude": 49.24,
      "longitude": -121.76,
      "elevation": 19
    },
    {
      "id": "71114",
      "name": "Hope Airport",
      "latitude": 49.37,
      "longitude": -121.49,
      "elevation": 39
    },
    {
      "id": "71115",
      "name": "Vernon",
      "latitude": 50.22,
      "longitude": -119.19,
      "elevation": 482
    },
    {
      "id": "71116",
      "name": "Onefour CDA",
      "latitude": 49.12,
      "longitude": -110.47,
      "elevation": 935
    },
    {
      "id": "71118",
      "name": "Camp Wainwright Airfield 21",
      "latitude": 52.83,
      "longitude": -111.1,
      "elevation": 689
    },
    {
      "id": "71119",
      "name": "Edmonton Stony Plain",
      "latitude": 53.55,
      "longitude": -114.11,
      "elevation": 766
    },
    {
      "id": "71120",
      "name": "Cold Lake Airport",
      "latitude": 54.42,
      "longitude": -110.28,
      "elevation": 541
    },
    {
      "id": "71121",
      "name": "Edmonton Namao Awos Airport",
      "latitude": 53.67,
      "longitude": -113.47,
      "elevation": 688
    },
    {
      "id": "71122",
      "name": "Banff",
      "latitude": 51.19,
      "longitude": -115.55,
      "elevation": 1397
    },
    {
      "id": "71123",
      "name": "Edmonton International Airport",
      "latitude": 53.31,
      "longitude": -113.58,
      "elevation": 723
    },
    {
      "id": "71124",
      "name": "Primrose Lake",
      "latitude": 54.75,
      "longitude": -110.05,
      "elevation": 702
    },
    {
      "id": "71125",
      "name": "Meadow Lake Airport",
      "latitude": 54.13,
      "longitude": -108.05,
      "elevation": 481
    },
    {
      "id": "71127",
      "name": "Primrose Lake 2",
      "latitude": 54.7833,
      "longitude": -110.0667,
      "elevation": 606
    },
    {
      "id": "71128",
      "name": "Suffield Airport",
      "latitude": 50.27,
      "longitude": -111.18,
      "elevation": 770
    },
    {
      "id": "71129",
      "name": "Kindersley Airport",
      "latitude": 51.52,
      "longitude": -109.18,
      "elevation": 694
    },
    {
      "id": "71130",
      "name": "Nipawin",
      "latitude": 53.33,
      "longitude": -104.01,
      "elevation": 372
    },
    {
      "id": "71131",
      "name": "Eastend Cypress",
      "latitude": 49.44,
      "longitude": -108.99,
      "elevation": 1080
    },
    {
      "id": "71133",
      "name": "Spiritwood West",
      "latitude": 53.37,
      "longitude": -107.55,
      "elevation": 584
    },
    {
      "id": "71135",
      "name": "Rockglen",
      "latitude": 49.17,
      "longitude": -105.98,
      "elevation": 917
    },
    {
      "id": "71136",
      "name": "Vanscoy Upper-Air, Sask",
      "latitude": 52.0167,
      "longitude": -107.0333,
      "elevation": 0
    },
    {
      "id": "71137",
      "name": "Val Marie Southeast",
      "latitude": 49.06,
      "longitude": -107.59,
      "elevation": 796
    },
    {
      "id": "71138",
      "name": "Yorkton, Saskatchewan",
      "latitude": 51.2667,
      "longitude": -102.4667,
      "elevation": 498
    },
    {
      "id": "71139",
      "name": "Cypress Hills Park",
      "latitude": 49.64,
      "longitude": -109.51,
      "elevation": 1271
    },
    {
      "id": "71142",
      "name": "Hunters Point Mar",
      "latitude": 53.0333,
      "longitude": -100.9333,
      "elevation": 256
    },
    {
      "id": "71150",
      "name": "Shoal Lake CS",
      "latitude": 50.45,
      "longitude": -100.6,
      "elevation": 561
    },
    {
      "id": "71153",
      "name": "Cardston",
      "latitude": 49.2,
      "longitude": -113.29,
      "elevation": 1136
    },
    {
      "id": "71154",
      "name": "Waterton Park Gate",
      "latitude": 49.13,
      "longitude": -113.81,
      "elevation": 1289
    },
    {
      "id": "71155",
      "name": "Edmonton International CS",
      "latitude": 53.31,
      "longitude": -113.61,
      "elevation": 715
    },
    {
      "id": "71156",
      "name": "Edson",
      "latitude": 53.58,
      "longitude": -116.45,
      "elevation": 927
    },
    {
      "id": "71157",
      "name": "Edmonton Blatchford",
      "latitude": 53.57,
      "longitude": -113.52,
      "elevation": 671
    },
    {
      "id": "71173",
      "name": "Golden Airport",
      "latitude": 51.3,
      "longitude": -116.98,
      "elevation": 785
    },
    {
      "id": "71174",
      "name": "Sparwood / Natal",
      "latitude": 49.7453,
      "longitude": -114.8828,
      "elevation": 1138
    },
    {
      "id": "71175",
      "name": "Whistler / Alta Lake",
      "latitude": 50.1289,
      "longitude": -122.9548,
      "elevation": 658
    },
    {
      "id": "71192",
      "name": "Quesnel",
      "latitude": 53.03,
      "longitude": -122.51,
      "elevation": 545
    },
    {
      "id": "71200",
      "name": "Victoria Gonzales CS",
      "latitude": 48.41,
      "longitude": -123.32,
      "elevation": 61
    },
    {
      "id": "71201",
      "name": "Vancouver Harbour CS",
      "latitude": 49.3,
      "longitude": -123.12,
      "elevation": 2
    },
    {
      "id": "71202",
      "name": "Victoria / Sooke",
      "latitude": 48.3667,
      "longitude": -123.75,
      "elevation": 38
    },
    {
      "id": "71203",
      "name": "Kelowna",
      "latitude": 49.96,
      "longitude": -119.38,
      "elevation": 433
    },
    {
      "id": "71205",
      "name": "Campbell River",
      "latitude": 49.9508,
      "longitude": -125.2708,
      "elevation": 106
    },
    {
      "id": "71206",
      "name": "Bella Coola Airport",
      "latitude": 52.39,
      "longitude": -126.6,
      "elevation": 36
    },
    {
      "id": "71207",
      "name": "Squamish Airport",
      "latitude": 49.78,
      "longitude": -123.16,
      "elevation": 54
    },
    {
      "id": "71208",
      "name": "Powell River Airport",
      "latitude": 49.8333,
      "longitude": -124.5,
      "elevation": 130
    },
    {
      "id": "71209",
      "name": "Sandheads CS",
      "latitude": 49.11,
      "longitude": -123.3,
      "elevation": 11
    },
    {
      "id": "71211",
      "name": "Howe Sound - Pam Rocks",
      "latitude": 49.49,
      "longitude": -123.3,
      "elevation": 7
    },
    {
      "id": "71214",
      "name": "Bodo Agdm",
      "latitude": 52.12,
      "longitude": -110.1,
      "elevation": 687
    },
    {
      "id": "71215",
      "name": "Osoyoos CS",
      "latitude": 49.03,
      "longitude": -119.44,
      "elevation": 283
    },
    {
      "id": "71216",
      "name": "Nakusp CS",
      "latitude": 50.27,
      "longitude": -117.82,
      "elevation": 512
    },
    {
      "id": "71217",
      "name": "Champion Agdm",
      "latitude": 50.28,
      "longitude": -113.35,
      "elevation": 1006
    },
    {
      "id": "71218",
      "name": "Salmon Arm CS",
      "latitude": 50.7,
      "longitude": -119.29,
      "elevation": 350
    },
    {
      "id": "71220",
      "name": "Lucy Island Lightstation",
      "latitude": 54.3,
      "longitude": -130.61,
      "elevation": 2
    },
    {
      "id": "71223",
      "name": "Consort Agdm",
      "latitude": 51.94,
      "longitude": -110.71,
      "elevation": 772
    },
    {
      "id": "71224",
      "name": "Del Bonita Agdm",
      "latitude": 49.05,
      "longitude": -112.82,
      "elevation": 1310
    },
    {
      "id": "71225",
      "name": "Foremost Agdm",
      "latitude": 49.48,
      "longitude": -111.49,
      "elevation": 881
    },
    {
      "id": "71228",
      "name": "Killam Agdm",
      "latitude": 52.85,
      "longitude": -111.87,
      "elevation": 674
    },
    {
      "id": "71231",
      "name": "Bow Island",
      "latitude": 49.73,
      "longitude": -111.45,
      "elevation": 817
    },
    {
      "id": "71232",
      "name": "Bow Valley",
      "latitude": 51.08,
      "longitude": -115.07,
      "elevation": 1298
    },
    {
      "id": "71233",
      "name": "Breton Plots",
      "latitude": 53.09,
      "longitude": -114.44,
      "elevation": 852
    },
    {
      "id": "71234",
      "name": "Claresholm",
      "latitude": 50.0,
      "longitude": -113.64,
      "elevation": 1009
    },
    {
      "id": "71235",
      "name": "Cop Upper",
      "latitude": 51.08,
      "longitude": -114.22,
      "elevation": 1235
    },
    {
      "id": "71236",
      "name": "Crowsnest",
      "latitude": 49.63,
      "longitude": -114.48,
      "elevation": 1303
    },
    {
      "id": "71237",
      "name": "Drumheller East",
      "latitude": 51.45,
      "longitude": -112.68,
      "elevation": 678
    },
    {
      "id": "71238",
      "name": "Elk Island National Park",
      "latitude": 53.68,
      "longitude": -112.87,
      "elevation": 716
    },
    {
      "id": "71239",
      "name": "Ellerslie",
      "latitude": 53.4167,
      "longitude": -113.2,
      "elevation": 694
    },
    {
      "id": "71240",
      "name": "Esther 1",
      "latitude": 51.67,
      "longitude": -110.21,
      "elevation": 707
    },
    {
      "id": "71241",
      "name": "Highvale",
      "latitude": 53.45,
      "longitude": -114.4667,
      "elevation": 747
    },
    {
      "id": "71242",
      "name": "Lacombe CDA 2",
      "latitude": 52.45,
      "longitude": -113.76,
      "elevation": 860
    },
    {
      "id": "71243",
      "name": "Lethbridge CDA",
      "latitude": 49.7,
      "longitude": -112.77,
      "elevation": 910
    },
    {
      "id": "71244",
      "name": "Milk River",
      "latitude": 49.13,
      "longitude": -112.05,
      "elevation": 1050
    },
    {
      "id": "71248",
      "name": "Sundre Airport",
      "latitude": 51.78,
      "longitude": -114.68,
      "elevation": 1114
    },
    {
      "id": "71249",
      "name": "Three Hills",
      "latitude": 51.77,
      "longitude": -113.21,
      "elevation": 857
    },
    {
      "id": "71250",
      "name": "Turtle Mountain",
      "latitude": 49.5833,
      "longitude": -114.4167,
      "elevation": 2164
    },
    {
      "id": "71251",
      "name": "Vauxhall CDA CS",
      "latitude": 50.05,
      "longitude": -112.13,
      "elevation": 779
    },
    {
      "id": "71252",
      "name": "Willow Creek 1",
      "latitude": 53.39,
      "longitude": -118.35,
      "elevation": 1370
    },
    {
      "id": "71254",
      "name": "Camrose",
      "latitude": 53.05,
      "longitude": -112.82,
      "elevation": 739
    },
    {
      "id": "71256",
      "name": "Whitecourt , Alta.",
      "latitude": 54.15,
      "longitude": -115.7833,
      "elevation": 785
    },
    {
      "id": "71258",
      "name": "Olds Agdm",
      "latitude": 51.76,
      "longitude": -114.08,
      "elevation": 1046
    },
    {
      "id": "71259",
      "name": "Pollockville Agdm",
      "latitude": 51.13,
      "longitude": -111.71,
      "elevation": 750
    },
    {
      "id": "71269",
      "name": "Schuler Agdm",
      "latitude": 50.31,
      "longitude": -110.09,
      "elevation": 800
    },
    {
      "id": "71274",
      "name": "Smoky Lake Agdm",
      "latitude": 54.28,
      "longitude": -112.5,
      "elevation": 680
    },
    {
      "id": "71275",
      "name": "St. Paul AGCM",
      "latitude": 54.01,
      "longitude": -111.27,
      "elevation": 649
    },
    {
      "id": "71276",
      "name": "Two Hills Agdm",
      "latitude": 53.63,
      "longitude": -111.68,
      "elevation": 678
    },
    {
      "id": "71278",
      "name": "Vermilion Agdm",
      "latitude": 53.34,
      "longitude": -110.88,
      "elevation": 623
    },
    {
      "id": "71285",
      "name": "Abee Agdm",
      "latitude": 54.28,
      "longitude": -112.97,
      "elevation": 664
    },
    {
      "id": "71286",
      "name": "Andrew Agdm",
      "latitude": 53.92,
      "longitude": -112.28,
      "elevation": 625
    },
    {
      "id": "71289",
      "name": "Stettler Agdm",
      "latitude": 52.35,
      "longitude": -112.6,
      "elevation": 795
    },
    {
      "id": "71293",
      "name": "Callaghan Valley / Whistler Village",
      "latitude": 50.0089,
      "longitude": -123.1186,
      "elevation": 883
    },
    {
      "id": "71304",
      "name": "Callaghan Valley / Whistler Village",
      "latitude": 50.1428,
      "longitude": -123.1064,
      "elevation": 922
    },
    {
      "id": "71340",
      "name": "Dapp Agdm",
      "latitude": 54.32,
      "longitude": -113.95,
      "elevation": 614
    },
    {
      "id": "71341",
      "name": "Brocket Agdm",
      "latitude": 49.62,
      "longitude": -113.82,
      "elevation": 1073
    },
    {
      "id": "71342",
      "name": "Oyen Agdm",
      "latitude": 51.38,
      "longitude": -110.35,
      "elevation": 767
    },
    {
      "id": "71343",
      "name": "Wrentham Agdm",
      "latitude": 49.5,
      "longitude": -112.12,
      "elevation": 944
    },
    {
      "id": "71344",
      "name": "Hussar Agdm",
      "latitude": 51.18,
      "longitude": -112.5,
      "elevation": 971
    },
    {
      "id": "71345",
      "name": "Masinasin Agdm",
      "latitude": 49.14,
      "longitude": -111.65,
      "elevation": 948
    },
    {
      "id": "71346",
      "name": "Barnwell Agdm",
      "latitude": 49.8,
      "longitude": -112.3,
      "elevation": 824
    },
    {
      "id": "71349",
      "name": "Rich Lake Agdm",
      "latitude": 54.5,
      "longitude": -111.7,
      "elevation": 585
    },
    {
      "id": "71351",
      "name": "Oliver Agdm",
      "latitude": 53.65,
      "longitude": -113.35,
      "elevation": 665
    },
    {
      "id": "71353",
      "name": "Prentiss",
      "latitude": 52.43,
      "longitude": -113.6,
      "elevation": 965
    },
    {
      "id": "71354",
      "name": "Mundare Agdm",
      "latitude": 53.57,
      "longitude": -112.3,
      "elevation": 683
    },
    {
      "id": "71359",
      "name": "Dewberry AGCM",
      "latitude": 53.66,
      "longitude": -110.59,
      "elevation": 616
    },
    {
      "id": "71360",
      "name": "Edgerton AGCM",
      "latitude": 52.78,
      "longitude": -110.43,
      "elevation": 649
    },
    {
      "id": "71366",
      "name": "Callaghan Valley / Whistler Village",
      "latitude": 50.1397,
      "longitude": -123.1169,
      "elevation": 838
    },
    {
      "id": "71380",
      "name": "Crestomere AGCM",
      "latitude": 52.73,
      "longitude": -113.9,
      "elevation": 855
    },
    {
      "id": "71401",
      "name": "Warfield RCS",
      "latitude": 49.11,
      "longitude": -117.74,
      "elevation": 567
    },
    {
      "id": "71405",
      "name": "Shonts AGCM",
      "latitude": 53.33,
      "longitude": -112.54,
      "elevation": 679
    },
    {
      "id": "71409",
      "name": "Etzikom AGCM",
      "latitude": 49.55,
      "longitude": -111.05,
      "elevation": 845
    },
    {
      "id": "71413",
      "name": "Spondin AGCM",
      "latitude": 51.82,
      "longitude": -111.68,
      "elevation": 804
    },
    {
      "id": "71440",
      "name": "Holland Rock",
      "latitude": 54.1667,
      "longitude": -130.3667,
      "elevation": 5
    },
    {
      "id": "71443",
      "name": "Swan River RCS",
      "latitude": 52.11,
      "longitude": -101.23,
      "elevation": 335
    },
    {
      "id": "71446",
      "name": "Swift Current CDA",
      "latitude": 50.27,
      "longitude": -107.73,
      "elevation": 825
    },
    {
      "id": "71447",
      "name": "Melita",
      "latitude": 49.28,
      "longitude": -100.99,
      "elevation": 446
    },
    {
      "id": "71450",
      "name": "Elbow CS",
      "latitude": 51.13,
      "longitude": -106.58,
      "elevation": 595
    },
    {
      "id": "71452",
      "name": "Weyburn",
      "latitude": 49.7,
      "longitude": -103.8,
      "elevation": 589
    },
    {
      "id": "71453",
      "name": "Maple Creek",
      "latitude": 49.9,
      "longitude": -109.47,
      "elevation": 767
    },
    {
      "id": "71454",
      "name": "Waskesiu Lake",
      "latitude": 53.92,
      "longitude": -106.07,
      "elevation": 569
    },
    {
      "id": "71455",
      "name": "Lucky Lake",
      "latitude": 50.95,
      "longitude": -107.15,
      "elevation": 665
    },
    {
      "id": "71456",
      "name": "Melfort",
      "latitude": 52.82,
      "longitude": -104.6,
      "elevation": 490
    },
    {
      "id": "71457",
      "name": "Brooks",
      "latitude": 50.56,
      "longitude": -111.85,
      "elevation": 747
    },
    {
      "id": "71458",
      "name": "Vegreville",
      "latitude": 53.51,
      "longitude": -112.1,
      "elevation": 639
    },
    {
      "id": "71459",
      "name": "Leader Airport",
      "latitude": 50.91,
      "longitude": -109.5,
      "elevation": 676
    },
    {
      "id": "71472",
      "name": "Kindakun Rocks",
      "latitude": 53.32,
      "longitude": -132.77,
      "elevation": 15
    },
    {
      "id": "71473",
      "name": "Saturna Island CS",
      "latitude": 48.78,
      "longitude": -123.04,
      "elevation": 24
    },
    {
      "id": "71474",
      "name": "Clinton RCS",
      "latitude": 51.14,
      "longitude": -121.5,
      "elevation": 1059
    },
    {
      "id": "71475",
      "name": "Port Alberni",
      "latitude": 49.32,
      "longitude": -124.93,
      "elevation": 76
    },
    {
      "id": "71476",
      "name": "Grey Islet",
      "latitude": 54.58,
      "longitude": -130.7,
      "elevation": 10
    },
    {
      "id": "71477",
      "name": "Rose Spit",
      "latitude": 54.16,
      "longitude": -131.66,
      "elevation": 7
    },
    {
      "id": "71478",
      "name": "Sartine Island",
      "latitude": 50.82,
      "longitude": -128.91,
      "elevation": 103
    },
    {
      "id": "71479",
      "name": "Solander Island",
      "latitude": 50.11,
      "longitude": -127.94,
      "elevation": 94
    },
    {
      "id": "71481",
      "name": "Helmcken Island",
      "latitude": 50.4,
      "longitude": -125.8667,
      "elevation": 19
    },
    {
      "id": "71482",
      "name": "Cathedral Point",
      "latitude": 52.19,
      "longitude": -127.47,
      "elevation": 26
    },
    {
      "id": "71483",
      "name": "Nitinat Lake Meteorological Aeronautical Presentation System",
      "latitude": 48.6667,
      "longitude": -124.8333,
      "elevation": 41
    },
    {
      "id": "71484",
      "name": "Bonilla Island",
      "latitude": 53.49,
      "longitude": -130.64,
      "elevation": 13
    },
    {
      "id": "71485",
      "name": "Herbert Island",
      "latitude": 50.94,
      "longitude": -127.63,
      "elevation": 14
    },
    {
      "id": "71486",
      "name": "Jasper Warden",
      "latitude": 52.93,
      "longitude": -118.03,
      "elevation": 1020
    },
    {
      "id": "71487",
      "name": "Assiniboia Airport",
      "latitude": 49.73,
      "longitude": -105.95,
      "elevation": 726
    },
    {
      "id": "71489",
      "name": "Scott CDA",
      "latitude": 52.36,
      "longitude": -108.83,
      "elevation": 660
    },
    {
      "id": "71495",
      "name": "Nier Agdm",
      "latitude": 51.37,
      "longitude": -114.1,
      "elevation": 1145
    },
    {
      "id": "71498",
      "name": "Gleichen AGCM",
      "latitude": 50.93,
      "longitude": -112.94,
      "elevation": 907
    },
    {
      "id": "71500",
      "name": "Glenevis AGCM",
      "latitude": 53.83,
      "longitude": -114.54,
      "elevation": 670
    },
    {
      "id": "71504",
      "name": "Thorsby AGCM",
      "latitude": 53.22,
      "longitude": -113.89,
      "elevation": 754
    },
    {
      "id": "71510",
      "name": "Rosetown East",
      "latitude": 51.57,
      "longitude": -107.92,
      "elevation": 586
    },
    {
      "id": "71511",
      "name": "Watrous East",
      "latitude": 51.67,
      "longitude": -105.4,
      "elevation": 526
    },
    {
      "id": "71513",
      "name": "Saskatoon Kernen",
      "latitude": 52.15,
      "longitude": -106.55,
      "elevation": 510
    },
    {
      "id": "71514",
      "name": "Regina RCS",
      "latitude": 50.43,
      "longitude": -104.67,
      "elevation": 577
    },
    {
      "id": "71515",
      "name": "Indian Head CDA",
      "latitude": 50.55,
      "longitude": -103.65,
      "elevation": 579
    },
    {
      "id": "71516",
      "name": "Coronach Spc",
      "latitude": 49.05,
      "longitude": -105.48,
      "elevation": 756
    },
    {
      "id": "71517",
      "name": "Blood Tribe Agdm",
      "latitude": 49.57,
      "longitude": -113.05,
      "elevation": 980
    },
    {
      "id": "71518",
      "name": "Enchant Agdm",
      "latitude": 50.18,
      "longitude": -112.43,
      "elevation": 801
    },
    {
      "id": "71519",
      "name": "Bow Island Irrigation Agdm",
      "latitude": 49.87,
      "longitude": -111.37,
      "elevation": 796
    },
    {
      "id": "71525",
      "name": "Seven Persons Agdm",
      "latitude": 49.92,
      "longitude": -110.92,
      "elevation": 766
    },
    {
      "id": "71526",
      "name": "Strathmore Agdm",
      "latitude": 51.03,
      "longitude": -113.28,
      "elevation": 967
    },
    {
      "id": "71528",
      "name": "Iron Springs Agdm",
      "latitude": 49.9,
      "longitude": -112.73,
      "elevation": 858
    },
    {
      "id": "71535",
      "name": "Fincastle Agdm",
      "latitude": 49.8,
      "longitude": -112.03,
      "elevation": 833
    },
    {
      "id": "71536",
      "name": "Raymond Agdm",
      "latitude": 49.48,
      "longitude": -112.68,
      "elevation": 937
    },
    {
      "id": "71537",
      "name": "Rosemary Agdm",
      "latitude": 50.83,
      "longitude": -112.05,
      "elevation": 714
    },
    {
      "id": "71539",
      "name": "Moose Jaw CS",
      "latitude": 50.33,
      "longitude": -105.54,
      "elevation": 577
    },
    {
      "id": "71540",
      "name": "Hespero AGCM",
      "latitude": 52.31,
      "longitude": -114.49,
      "elevation": 965
    },
    {
      "id": "71544",
      "name": "Legal AGCM",
      "latitude": 54.0,
      "longitude": -113.47,
      "elevation": 680
    },
    {
      "id": "71548",
      "name": "St. Lina AGCM",
      "latitude": 54.28,
      "longitude": -111.45,
      "elevation": 619
    },
    {
      "id": "71549",
      "name": "Tawatinaw AGCM",
      "latitude": 54.3,
      "longitude": -113.52,
      "elevation": 611
    },
    {
      "id": "71550",
      "name": "Dauphin CS",
      "latitude": 51.1,
      "longitude": -100.06,
      "elevation": 304
    },
    {
      "id": "71551",
      "name": "Outlook Pfra",
      "latitude": 51.48,
      "longitude": -107.05,
      "elevation": 541
    },
    {
      "id": "71553",
      "name": "Roblin",
      "latitude": 51.18,
      "longitude": -101.36,
      "elevation": 540
    },
    {
      "id": "71555",
      "name": "Stavely Aafc",
      "latitude": 50.18,
      "longitude": -113.88,
      "elevation": 1364
    },
    {
      "id": "71556",
      "name": "Last Mountain CS",
      "latitude": 51.42,
      "longitude": -105.25,
      "elevation": 497
    },
    {
      "id": "71557",
      "name": "Merritt",
      "latitude": 50.11,
      "longitude": -120.78,
      "elevation": 591
    },
    {
      "id": "71562",
      "name": "Holberg, BC",
      "latitude": 50.6333,
      "longitude": -128.1167,
      "elevation": 568
    },
    {
      "id": "71565",
      "name": "Leedale Agdm",
      "latitude": 52.55,
      "longitude": -114.47,
      "elevation": 947
    },
    {
      "id": "71566",
      "name": "Tomahawk Agdm",
      "latitude": 53.44,
      "longitude": -114.72,
      "elevation": 814
    },
    {
      "id": "71568",
      "name": "Fanny Island",
      "latitude": 50.45,
      "longitude": -125.99,
      "elevation": 5
    },
    {
      "id": "71569",
      "name": "Bratt's Lake",
      "latitude": 50.2,
      "longitude": -104.71,
      "elevation": 580
    },
    {
      "id": "71594",
      "name": "Aldergrove / Delta",
      "latitude": 49.0166,
      "longitude": -122.4873,
      "elevation": 91
    },
    {
      "id": "71613",
      "name": "Bethune / Disley",
      "latitude": 50.5711,
      "longitude": -105.1827,
      "elevation": 579
    },
    {
      "id": "71669",
      "name": "Pekisko",
      "latitude": 50.37,
      "longitude": -114.42,
      "elevation": 1415
    },
    {
      "id": "71673",
      "name": "Ferintosh AGCM",
      "latitude": 52.74,
      "longitude": -112.86,
      "elevation": 795
    },
    {
      "id": "71674",
      "name": "Forestburg AGCM",
      "latitude": 52.55,
      "longitude": -112.12,
      "elevation": 721
    },
    {
      "id": "71679",
      "name": "Ootsa Lakeskins Lake",
      "latitude": 53.77,
      "longitude": -126.0,
      "elevation": 861
    },
    {
      "id": "71681",
      "name": "Ashcroft",
      "latitude": 50.71,
      "longitude": -121.28,
      "elevation": 327
    },
    {
      "id": "71685",
      "name": "Whistler Mountain / Whistler Village",
      "latitude": 50.0742,
      "longitude": -122.9469,
      "elevation": 1690
    },
    {
      "id": "71686",
      "name": "Whistler Mountain / Whistler Village",
      "latitude": 50.0878,
      "longitude": -122.9756,
      "elevation": 933
    },
    {
      "id": "71687",
      "name": "Whistler - Nesters",
      "latitude": 50.13,
      "longitude": -122.95,
      "elevation": 659
    },
    {
      "id": "71688",
      "name": "Callaghan Valley",
      "latitude": 50.14,
      "longitude": -123.11,
      "elevation": 884
    },
    {
      "id": "71689",
      "name": "Cypress Bowl North / Lions Bay",
      "latitude": 49.4019,
      "longitude": -123.2075,
      "elevation": 953
    },
    {
      "id": "71741",
      "name": "Kamloops",
      "latitude": 50.7,
      "longitude": -120.44,
      "elevation": 345
    },
    {
      "id": "71756",
      "name": "Blackcomb Base Sliding Center",
      "latitude": 50.1,
      "longitude": -122.94,
      "elevation": 937
    },
    {
      "id": "71760",
      "name": "Big Creek",
      "latitude": 51.25,
      "longitude": -123.0833,
      "elevation": 1670
    },
    {
      "id": "71761",
      "name": "Vilna AGCM",
      "latitude": 54.13,
      "longitude": -111.92,
      "elevation": 645
    },
    {
      "id": "71763",
      "name": "Nechako River",
      "latitude": 53.6833,
      "longitude": -124.8333,
      "elevation": 715
    },
    {
      "id": "71765",
      "name": "Lytton RCS",
      "latitude": 50.22,
      "longitude": -121.58,
      "elevation": 225
    },
    {
      "id": "71766",
      "name": "Qualicum Beach Airport",
      "latitude": 49.34,
      "longitude": -124.39,
      "elevation": 58
    },
    {
      "id": "71768",
      "name": "Summerland CS",
      "latitude": 49.56,
      "longitude": -119.65,
      "elevation": 454
    },
    {
      "id": "71769",
      "name": "Ballenas Island",
      "latitude": 49.35,
      "longitude": -124.16,
      "elevation": 15
    },
    {
      "id": "71770",
      "name": "Creston Campbell Scientific",
      "latitude": 49.08,
      "longitude": -116.5,
      "elevation": 641
    },
    {
      "id": "71771",
      "name": "Cumshewa Island",
      "latitude": 53.03,
      "longitude": -131.6,
      "elevation": 13
    },
    {
      "id": "71772",
      "name": "Entrance Island",
      "latitude": 49.21,
      "longitude": -123.81,
      "elevation": 8
    },
    {
      "id": "71774",
      "name": "Malahat",
      "latitude": 48.57,
      "longitude": -123.53,
      "elevation": 366
    },
    {
      "id": "71775",
      "name": "Pitt Meadows CS",
      "latitude": 49.21,
      "longitude": -122.69,
      "elevation": 5
    },
    {
      "id": "71776",
      "name": "Nelson CS",
      "latitude": 49.49,
      "longitude": -117.31,
      "elevation": 535
    },
    {
      "id": "71777",
      "name": "Pemberton Airport CS",
      "latitude": 50.31,
      "longitude": -122.73,
      "elevation": 204
    },
    {
      "id": "71778",
      "name": "Race Rocks",
      "latitude": 48.3,
      "longitude": -123.53,
      "elevation": 7
    },
    {
      "id": "71779",
      "name": "Quesnel Airport",
      "latitude": 53.03,
      "longitude": -122.51,
      "elevation": 545
    },
    {
      "id": "71780",
      "name": "Sheringham Point",
      "latitude": 48.38,
      "longitude": -123.92,
      "elevation": 7
    },
    {
      "id": "71781",
      "name": "Sisters Island",
      "latitude": 49.49,
      "longitude": -124.43,
      "elevation": 20
    },
    {
      "id": "71782",
      "name": "Sparwood CS",
      "latitude": 49.75,
      "longitude": -114.88,
      "elevation": 1137
    },
    {
      "id": "71783",
      "name": "Victoria University CS",
      "latitude": 48.46,
      "longitude": -123.3,
      "elevation": 60
    },
    {
      "id": "71784",
      "name": "West Vancouver",
      "latitude": 49.35,
      "longitude": -123.19,
      "elevation": 170
    },
    {
      "id": "71785",
      "name": "White Rock Campbell Scientific",
      "latitude": 49.02,
      "longitude": -122.78,
      "elevation": 13
    },
    {
      "id": "71786",
      "name": "Yoho Park",
      "latitude": 51.44,
      "longitude": -116.34,
      "elevation": 1602
    },
    {
      "id": "71788",
      "name": "Grassy Lake",
      "latitude": 49.87,
      "longitude": -111.73,
      "elevation": 783
    },
    {
      "id": "71789",
      "name": "Fort Macleod AGCM",
      "latitude": 49.79,
      "longitude": -113.38,
      "elevation": 978
    },
    {
      "id": "71791",
      "name": "Gilt Edge North AGCM",
      "latitude": 53.07,
      "longitude": -110.62,
      "elevation": 647
    },
    {
      "id": "71792",
      "name": "Halkirk AGCM",
      "latitude": 52.12,
      "longitude": -112.16,
      "elevation": 843
    },
    {
      "id": "71793",
      "name": "Hemaruka AGCM",
      "latitude": 51.78,
      "longitude": -111.21,
      "elevation": 780
    },
    {
      "id": "71794",
      "name": "Hughenden AGCM",
      "latitude": 52.58,
      "longitude": -110.78,
      "elevation": 703
    },
    {
      "id": "71795",
      "name": "Irvine AGCM",
      "latitude": 49.99,
      "longitude": -110.26,
      "elevation": 795
    },
    {
      "id": "71796",
      "name": "Kessler AGCM",
      "latitude": 52.29,
      "longitude": -111.11,
      "elevation": 720
    },
    {
      "id": "71797",
      "name": "Kitscoty AGCM",
      "latitude": 53.35,
      "longitude": -110.42,
      "elevation": 664
    },
    {
      "id": "71798",
      "name": "Esquimalt Harbour",
      "latitude": 48.43,
      "longitude": -123.44,
      "elevation": 3
    },
    {
      "id": "71799",
      "name": "Victoria International Airport",
      "latitude": 48.65,
      "longitude": -123.43,
      "elevation": 20
    },
    {
      "id": "71837",
      "name": "St. Mary Reservoir",
      "latitude": 49.36,
      "longitude": -113.11,
      "elevation": 1128
    },
    {
      "id": "71839",
      "name": "Bullhorn Coulee Reservoir",
      "latitude": 49.3,
      "longitude": -113.36,
      "elevation": 1115
    },
    {
      "id": "71855",
      "name": "Dauphin, Manitoba",
      "latitude": 51.1,
      "longitude": -100.05,
      "elevation": 305
    },
    {
      "id": "71860",
      "name": "Calgary / Cochrane",
      "latitude": 51.1,
      "longitude": -114.3667,
      "elevation": 1200
    },
    {
      "id": "71861",
      "name": "Broadview",
      "latitude": 50.37,
      "longitude": -102.57,
      "elevation": 600
    },
    {
      "id": "71862",
      "name": "Estevan Airport",
      "latitude": 49.21,
      "longitude": -102.97,
      "elevation": 580
    },
    {
      "id": "71863",
      "name": "Regina, Saskatchewan",
      "latitude": 50.4333,
      "longitude": -104.6667,
      "elevation": 577
    },
    {
      "id": "71864",
      "name": "Moose Jaw Airport",
      "latitude": 50.33,
      "longitude": -105.57,
      "elevation": 577
    },
    {
      "id": "71865",
      "name": "Wynyard",
      "latitude": 51.77,
      "longitude": -104.2,
      "elevation": 560
    },
    {
      "id": "71866",
      "name": "Saskatoon Airport",
      "latitude": 52.1667,
      "longitude": -106.6833,
      "elevation": 501
    },
    {
      "id": "71867",
      "name": "The Pas Airport",
      "latitude": 53.97,
      "longitude": -101.09,
      "elevation": 271
    },
    {
      "id": "71868",
      "name": "Hudson Bay",
      "latitude": 52.82,
      "longitude": -102.32,
      "elevation": 358
    },
    {
      "id": "71869",
      "name": "Prince Albert Airport",
      "latitude": 53.21,
      "longitude": -105.67,
      "elevation": 428
    },
    {
      "id": "71870",
      "name": "Swift Current, Saskatchewan",
      "latitude": 50.2833,
      "longitude": -107.6833,
      "elevation": 818
    },
    {
      "id": "71871",
      "name": "Lloydminster",
      "latitude": 53.31,
      "longitude": -110.07,
      "elevation": 669
    },
    {
      "id": "71872",
      "name": "Medicine Hat, Alta.",
      "latitude": 50.0167,
      "longitude": -110.7167,
      "elevation": 717
    },
    {
      "id": "71873",
      "name": "Coronation Marine Aviation Reporting Station",
      "latitude": 52.0667,
      "longitude": -111.45,
      "elevation": 791
    },
    {
      "id": "71874",
      "name": "Lethbridge, Alta.",
      "latitude": 49.6333,
      "longitude": -112.8,
      "elevation": 929
    },
    {
      "id": "71876",
      "name": "North Battleford",
      "latitude": 52.77,
      "longitude": -108.24,
      "elevation": 548
    },
    {
      "id": "71877",
      "name": "Calgary International Airport",
      "latitude": 51.12,
      "longitude": -114.01,
      "elevation": 1099
    },
    {
      "id": "71878",
      "name": "Red Deer Regional Airport",
      "latitude": 52.18,
      "longitude": -113.89,
      "elevation": 905
    },
    {
      "id": "71879",
      "name": "Edmonton City Centre Awos",
      "latitude": 53.57,
      "longitude": -113.52,
      "elevation": 671
    },
    {
      "id": "71880",
      "name": "Cranbrook Airport",
      "latitude": 49.61,
      "longitude": -115.78,
      "elevation": 940
    },
    {
      "id": "71881",
      "name": "Edson, Alta.",
      "latitude": 53.5833,
      "longitude": -116.4667,
      "elevation": 921
    },
    {
      "id": "71882",
      "name": "Revelstoke Airport",
      "latitude": 50.96,
      "longitude": -118.18,
      "elevation": 445
    },
    {
      "id": "71883",
      "name": "Blue River CS",
      "latitude": 52.13,
      "longitude": -119.29,
      "elevation": 683
    },
    {
      "id": "71884",
      "name": "Castlegar Airport",
      "latitude": 49.3,
      "longitude": -117.6333,
      "elevation": 495
    },
    {
      "id": "71885",
      "name": "Glenwood",
      "latitude": 49.33,
      "longitude": -113.52,
      "elevation": 1074
    },
    {
      "id": "71886",
      "name": "Princeton Airport",
      "latitude": 49.4667,
      "longitude": -120.5167,
      "elevation": 700
    },
    {
      "id": "71887",
      "name": "Kamloops Airport",
      "latitude": 50.7,
      "longitude": -120.45,
      "elevation": 345
    },
    {
      "id": "71888",
      "name": "Jasper",
      "latitude": 52.8833,
      "longitude": -118.0667,
      "elevation": 1061
    },
    {
      "id": "71889",
      "name": "Penticton Airport",
      "latitude": 49.46,
      "longitude": -119.6,
      "elevation": 344
    },
    {
      "id": "71890",
      "name": "Nanaimo Airport",
      "latitude": 49.05,
      "longitude": -123.8667,
      "elevation": 28
    },
    {
      "id": "71891",
      "name": "Lytton, BC",
      "latitude": 50.2333,
      "longitude": -121.5833,
      "elevation": 229
    },
    {
      "id": "71892",
      "name": "Vancouver International Airport",
      "latitude": 49.19,
      "longitude": -123.18,
      "elevation": 4
    },
    {
      "id": "71893",
      "name": "Comox Airport",
      "latitude": 49.72,
      "longitude": -124.9,
      "elevation": 26
    },
    {
      "id": "71894",
      "name": "Estevan Point CS",
      "latitude": 49.38,
      "longitude": -126.54,
      "elevation": 6
    },
    {
      "id": "71895",
      "name": "Bull Harbour / San Josef",
      "latitude": 50.9167,
      "longitude": -127.95,
      "elevation": 14
    },
    {
      "id": "71896",
      "name": "Prince George",
      "latitude": 53.88,
      "longitude": -122.68,
      "elevation": 691
    },
    {
      "id": "71897",
      "name": "McInnes Island",
      "latitude": 52.26,
      "longitude": -128.72,
      "elevation": 26
    },
    {
      "id": "71898",
      "name": "Prince Rupert, BC",
      "latitude": 54.3,
      "longitude": -130.4333,
      "elevation": 34
    },
    {
      "id": "71899",
      "name": "Langara",
      "latitude": 54.26,
      "longitude": -133.06,
      "elevation": 43
    },
    {
      "id": "71903",
      "name": "Nikolai",
      "latitude": 54.2553,
      "longitude": -133.0583,
      "elevation": 41
    },
    {
      "id": "71914",
      "name": "Saturna Capmon CS",
      "latitude": 48.78,
      "longitude": -123.13,
      "elevation": 178
    },
    {
      "id": "71927",
      "name": "North Cowichan",
      "latitude": 48.82,
      "longitude": -123.72,
      "elevation": 45
    },
    {
      "id": "71928",
      "name": "Rocky Mtn House",
      "latitude": 52.42,
      "longitude": -114.91,
      "elevation": 988
    },
    {
      "id": "71930",
      "name": "Whitecourt Airport",
      "latitude": 54.14,
      "longitude": -115.79,
      "elevation": 782
    },
    {
      "id": "71931",
      "name": "Lac La Biche, Alta.",
      "latitude": 54.7667,
      "longitude": -112.0167,
      "elevation": 565
    },
    {
      "id": "71947",
      "name": "Mt Washington / Black Creek",
      "latitude": 49.7467,
      "longitude": -125.2872,
      "elevation": 1474
    },
    {
      "id": "71950",
      "name": "Smithers",
      "latitude": 54.83,
      "longitude": -127.18,
      "elevation": 523
    },
    {
      "id": "71951",
      "name": "Terrace Airport",
      "latitude": 54.47,
      "longitude": -128.58,
      "elevation": 217
    },
    {
      "id": "71952",
      "name": "Burns Lake Decker Lake",
      "latitude": 54.38,
      "longitude": -125.96,
      "elevation": 713
    },
    {
      "id": "71961",
      "name": "Victoria / Esquimalt",
      "latitude": 48.4167,
      "longitude": -123.3833,
      "elevation": 0
    },
    {
      "id": "71979",
      "name": "Hendrickson Creek",
      "latitude": 53.8,
      "longitude": -118.45,
      "elevation": 1448
    },
    {
      "id": "71999",
      "name": "Lillooet",
      "latitude": 50.68,
      "longitude": -121.93,
      "elevation": 240
    },
    {
      "id": "72273",
      "name": "Fort Huachuca, Libby Aaf Ft Huachuca",
      "latitude": 47.6333,
      "longitude": -110.3333,
      "elevation": 1438
    },
    {
      "id": "72677",
      "name": "Logan International Airport",
      "latitude": 45.8167,
      "longitude": -108.55,
      "elevation": 1112
    },
    {
      "id": "72686",
      "name": "Salmon / Baker",
      "latitude": 45.1238,
      "longitude": -113.8813,
      "elevation": 1232
    },
    {
      "id": "72688",
      "name": "Pendleton Municipal Airport",
      "latitude": 46.1667,
      "longitude": -119.3833,
      "elevation": 455
    },
    {
      "id": "72698",
      "name": "Portland International  Airport",
      "latitude": 45.5833,
      "longitude": -122.6,
      "elevation": 8
    },
    {
      "id": "72763",
      "name": "Dickinson / Eland",
      "latitude": 46.7973,
      "longitude": -102.8019,
      "elevation": 790
    },
    {
      "id": "72764",
      "name": "Bismarck Municipal Airport",
      "latitude": 46.7833,
      "longitude": -100.75,
      "elevation": 511
    },
    {
      "id": "72767",
      "name": "Sloulin Field International  Airport",
      "latitude": 48.1833,
      "longitude": -103.65,
      "elevation": 604
    },
    {
      "id": "72768",
      "name": "Glasgow International Airport",
      "latitude": 48.2167,
      "longitude": -106.6167,
      "elevation": 699
    },
    {
      "id": "72769",
      "name": "Cut Bank / Little Browning",
      "latitude": 48.6084,
      "longitude": -112.3761,
      "elevation": 1176
    },
    {
      "id": "72770",
      "name": "Dillon / Bishop Place",
      "latitude": 45.2554,
      "longitude": -112.5525,
      "elevation": 1599
    },
    {
      "id": "72772",
      "name": "Helena Regional Airport",
      "latitude": 46.6,
      "longitude": -111.9667,
      "elevation": 1180
    },
    {
      "id": "72773",
      "name": "Missoula International Airport",
      "latitude": 46.9167,
      "longitude": -114.1,
      "elevation": 976
    },
    {
      "id": "72774",
      "name": "Butte / Valley Vista Mobile Home Community",
      "latitude": 45.9548,
      "longitude": -112.4975,
      "elevation": 1692
    },
    {
      "id": "72775",
      "name": "Great Falls International",
      "latitude": 47.4667,
      "longitude": -111.3833,
      "elevation": 1120
    },
    {
      "id": "72776",
      "name": "Great Falls, Mt.",
      "latitude": 47.4667,
      "longitude": -111.3833,
      "elevation": 1131
    },
    {
      "id": "72777",
      "name": "Havre City-County Airport",
      "latitude": 48.55,
      "longitude": -109.7667,
      "elevation": 789
    },
    {
      "id": "72779",
      "name": "Glacier Park International  Airport",
      "latitude": 48.3,
      "longitude": -114.2667,
      "elevation": 906
    },
    {
      "id": "72781",
      "name": "Yakima Air Terminal",
      "latitude": 46.5667,
      "longitude": -120.5333,
      "elevation": 334
    },
    {
      "id": "72782",
      "name": "Malaga",
      "latitude": 47.4,
      "longitude": -120.2,
      "elevation": 379
    },
    {
      "id": "72783",
      "name": "Lewiston Nez Perce Co Airport",
      "latitude": 46.3667,
      "longitude": -117.0167,
      "elevation": 438
    },
    {
      "id": "72784",
      "name": "Hanford",
      "latitude": 46.5667,
      "longitude": -119.6,
      "elevation": 223
    },
    {
      "id": "72785",
      "name": "Spokane International Airport",
      "latitude": 47.6167,
      "longitude": -117.5333,
      "elevation": 723
    },
    {
      "id": "72787",
      "name": "Deer Park / T Bridge Corner",
      "latitude": 47.9689,
      "longitude": -117.4211,
      "elevation": 654
    },
    {
      "id": "72788",
      "name": "Walla Walla, Wa",
      "latitude": 46.0333,
      "longitude": -118.3333,
      "elevation": 289
    },
    {
      "id": "72789",
      "name": "Omak",
      "latitude": 48.4167,
      "longitude": -119.5333,
      "elevation": 374
    },
    {
      "id": "72790",
      "name": "Ephrata / Lakeview",
      "latitude": 47.3081,
      "longitude": -119.5169,
      "elevation": 389
    },
    {
      "id": "72791",
      "name": "Port Of Astoria Airport",
      "latitude": 46.15,
      "longitude": -123.8833,
      "elevation": 3
    },
    {
      "id": "72792",
      "name": "Olympia Airport",
      "latitude": 46.9667,
      "longitude": -122.9,
      "elevation": 63
    },
    {
      "id": "72793",
      "name": "Seattle-Tacoma Airport",
      "latitude": 47.45,
      "longitude": -122.3167,
      "elevation": 131
    },
    {
      "id": "72797",
      "name": "Quillayute State Airport",
      "latitude": 47.9333,
      "longitude": -124.5667,
      "elevation": 59
    },
    {
      "id": "72798",
      "name": "Argyle",
      "latitude": 48.51,
      "longitude": -123.02,
      "elevation": 33
    },
    {
      "id": "74201",
      "name": "Port Angeles Coast Guard Air Station",
      "latitude": 48.1333,
      "longitude": -123.4,
      "elevation": 5
    },
    {
      "id": "74206",
      "name": "Tacoma / McChord Air Force Base",
      "latitude": 47.15,
      "longitude": -122.4833,
      "elevation": 98
    },
    {
      "id": "74207",
      "name": "Fort Lewis / Gray U. S. Army Airfield",
      "latitude": 47.1167,
      "longitude": -122.55,
      "elevation": 92
    },
    {
      "id": "74230",
      "name": "Miles City",
      "latitude": 46.4333,
      "longitude": -105.8833,
      "elevation": 801
    },
    {
      "id": "79CS3",
      "name": "Ucluelet Kennedy Camp",
      "latitude": 48.95,
      "longitude": -125.53,
      "elevation": 40
    },
    {
      "id": "7ACF6",
      "name": "Red Deer Overlap",
      "latitude": 52.18,
      "longitude": -112.11,
      "elevation": 905
    },
    {
      "id": "7AUJ5",
      "name": "Waseca RCS",
      "latitude": 53.13,
      "longitude": -109.41,
      "elevation": 640
    },
    {
      "id": "7AW70",
      "name": "Kaslo",
      "latitude": 49.91,
      "longitude": -116.92,
      "elevation": 600
    },
    {
      "id": "7ERGR",
      "name": "Sumas Canal",
      "latitude": 49.11,
      "longitude": -122.11,
      "elevation": 9
    },
    {
      "id": "7ERSW",
      "name": "Vernon Silver Star Lodge",
      "latitude": 50.36,
      "longitude": -119.06,
      "elevation": 1586
    },
    {
      "id": "7Q3IV",
      "name": "Goldstream River",
      "latitude": 51.63,
      "longitude": -118.42,
      "elevation": 700
    },
    {
      "id": "7QWEU",
      "name": "Laurel Municipal Airport",
      "latitude": 45.7052,
      "longitude": -108.7608,
      "elevation": 1072
    },
    {
      "id": "7S1L1",
      "name": "Olds",
      "latitude": 51.78,
      "longitude": -114.1,
      "elevation": 1040
    },
    {
      "id": "7T8MR",
      "name": "Masset Airport",
      "latitude": 54.0,
      "longitude": -132.17,
      "elevation": 13
    },
    {
      "id": "7XKBA",
      "name": "Kindersley Airport",
      "latitude": 51.52,
      "longitude": -109.18,
      "elevation": 694
    },
    {
      "id": "7Y9A7",
      "name": "Kemano",
      "latitude": 53.56,
      "longitude": -127.94,
      "elevation": 66
    },
    {
      "id": "7YPWS",
      "name": "Fleet AGCM",
      "latitude": 52.04,
      "longitude": -111.81,
      "elevation": 823
    },
    {
      "id": "7ZGEJ",
      "name": "Sparwood Airport",
      "latitude": 49.83,
      "longitude": -114.88,
      "elevation": 1158
    },
    {
      "id": "80QRF",
      "name": "Hedley Np Mine",
      "latitude": 49.37,
      "longitude": -120.02,
      "elevation": 1651
    },
    {
      "id": "869NV",
      "name": "Lodge Creek",
      "latitude": 49.46,
      "longitude": -110.34,
      "elevation": 1068
    },
    {
      "id": "8A8R9",
      "name": "Kitimat Forest Ave",
      "latitude": 54.05,
      "longitude": -128.63,
      "elevation": 98
    },
    {
      "id": "8ASF6",
      "name": "Gilbert Plains",
      "latitude": 51.1,
      "longitude": -100.47,
      "elevation": 404
    },
    {
      "id": "8B2H9",
      "name": "Vernon North",
      "latitude": 50.34,
      "longitude": -119.27,
      "elevation": 538
    },
    {
      "id": "8IOEO",
      "name": "Andrew",
      "latitude": 54.02,
      "longitude": -112.23,
      "elevation": 610
    },
    {
      "id": "8MACQ",
      "name": "Kipling",
      "latitude": 50.2,
      "longitude": -102.73,
      "elevation": 671
    },
    {
      "id": "8MXY4",
      "name": "Regina Rcmp Snow",
      "latitude": 50.45,
      "longitude": -104.67,
      "elevation": 570
    },
    {
      "id": "8P1E1",
      "name": "Mckague 2",
      "latitude": 52.58,
      "longitude": -103.83,
      "elevation": 543
    },
    {
      "id": "8P22J",
      "name": "Barkerville",
      "latitude": 53.07,
      "longitude": -121.51,
      "elevation": 1283
    },
    {
      "id": "8QNLN",
      "name": "Cutbank",
      "latitude": 51.29,
      "longitude": -106.85,
      "elevation": 575
    },
    {
      "id": "8RE84",
      "name": "Camrose 2",
      "latitude": 52.95,
      "longitude": -112.8,
      "elevation": 738
    },
    {
      "id": "8UE9V",
      "name": "Loon Lake RCS",
      "latitude": 54.02,
      "longitude": -109.14,
      "elevation": 546
    },
    {
      "id": "90R4J",
      "name": "Breton",
      "latitude": 53.17,
      "longitude": -114.48,
      "elevation": 843
    },
    {
      "id": "96F8K",
      "name": "Sun Peaks Lower",
      "latitude": 50.89,
      "longitude": -119.88,
      "elevation": 1311
    },
    {
      "id": "98ZFG",
      "name": "Violet Grove CS",
      "latitude": 53.14,
      "longitude": -115.13,
      "elevation": 914
    },
    {
      "id": "9HFPT",
      "name": "Fernie",
      "latitude": 49.49,
      "longitude": -115.07,
      "elevation": 1001
    },
    {
      "id": "9Q5SS",
      "name": "Elkhorn 2 East",
      "latitude": 49.93,
      "longitude": -101.2,
      "elevation": 498
    },
    {
      "id": "9V4HL",
      "name": "Ralston AGCM",
      "latitude": 50.1,
      "longitude": -111.21,
      "elevation": 770
    },
    {
      "id": "9Y709",
      "name": "Echo",
      "latitude": 47.4535,
      "longitude": -109.4163,
      "elevation": 1116
    },
    {
      "id": "9Z5VP",
      "name": "Sibbald Westgard",
      "latitude": 51.42,
      "longitude": -110.15,
      "elevation": 724
    },
    {
      "id": "A13Z0",
      "name": "Walla Walla Regional Airport",
      "latitude": 46.0946,
      "longitude": -118.2858,
      "elevation": 367
    },
    {
      "id": "A17NI",
      "name": "Grand Forks Hardy Mtn",
      "latitude": 49.04,
      "longitude": -118.49,
      "elevation": 623
    },
    {
      "id": "A2E3H",
      "name": "Elbow 2 Ne",
      "latitude": 51.17,
      "longitude": -106.55,
      "elevation": 605
    },
    {
      "id": "A4CCY",
      "name": "Bella Coola Airport",
      "latitude": 52.39,
      "longitude": -126.6,
      "elevation": 36
    },
    {
      "id": "A4Y76",
      "name": "Calgary Springbank Airport",
      "latitude": 51.11,
      "longitude": -114.37,
      "elevation": 1201
    },
    {
      "id": "A7KKO",
      "name": "Edmonton South Campus",
      "latitude": 53.49,
      "longitude": -113.54,
      "elevation": 670
    },
    {
      "id": "AAIJB",
      "name": "Whitecourt Airport",
      "latitude": 54.14,
      "longitude": -115.79,
      "elevation": 782
    },
    {
      "id": "ABLIX",
      "name": "North Battleford RCS",
      "latitude": 52.77,
      "longitude": -108.26,
      "elevation": 548
    },
    {
      "id": "AD0H1",
      "name": "Victoria Harbour Airport",
      "latitude": 48.42,
      "longitude": -123.39,
      "elevation": 0
    },
    {
      "id": "AHE44",
      "name": "Duncan Kelvin Creek",
      "latitude": 48.73,
      "longitude": -123.73,
      "elevation": 103
    },
    {
      "id": "AHRPL",
      "name": "Myra Creek",
      "latitude": 49.58,
      "longitude": -125.61,
      "elevation": 354
    },
    {
      "id": "AM5JZ",
      "name": "Mica Dam",
      "latitude": 52.05,
      "longitude": -118.59,
      "elevation": 579
    },
    {
      "id": "ARKWZ",
      "name": "Port Moody Glenayre",
      "latitude": 49.28,
      "longitude": -122.88,
      "elevation": 130
    },
    {
      "id": "AZ9Z9",
      "name": "Tonkin",
      "latitude": 51.2,
      "longitude": -102.23,
      "elevation": 527
    },
    {
      "id": "B1VIT",
      "name": "Pelly",
      "latitude": 52.08,
      "longitude": -101.87,
      "elevation": 509
    },
    {
      "id": "B20FC",
      "name": "Kimberley Pcc",
      "latitude": 49.63,
      "longitude": -115.96,
      "elevation": 889
    },
    {
      "id": "B5C4Y",
      "name": "Black Creek Se",
      "latitude": 49.8,
      "longitude": -125.09,
      "elevation": 88
    },
    {
      "id": "B5TUH",
      "name": "Regina Siast Snow",
      "latitude": 50.41,
      "longitude": -104.58,
      "elevation": 574
    },
    {
      "id": "BBK6X",
      "name": "Dryad Point",
      "latitude": 52.19,
      "longitude": -128.11,
      "elevation": 4
    },
    {
      "id": "BGOOC",
      "name": "N Vanc Grouse Mtn Resort",
      "latitude": 49.38,
      "longitude": -123.08,
      "elevation": 1103
    },
    {
      "id": "BS5LM",
      "name": "Hope Slide",
      "latitude": 49.27,
      "longitude": -121.23,
      "elevation": 685
    },
    {
      "id": "BUBZJ",
      "name": "Craigmyle AGCM",
      "latitude": 51.78,
      "longitude": -112.25,
      "elevation": 845
    },
    {
      "id": "BWE30",
      "name": "Qu'appelle 1",
      "latitude": 50.57,
      "longitude": -103.98,
      "elevation": 663
    },
    {
      "id": "C2TMU",
      "name": "Uncas",
      "latitude": 53.5,
      "longitude": -113.03,
      "elevation": 750
    },
    {
      "id": "C354V",
      "name": "Blue River Airport",
      "latitude": 52.12,
      "longitude": -119.29,
      "elevation": 690
    },
    {
      "id": "C3MJU",
      "name": "Flin Flon",
      "latitude": 54.77,
      "longitude": -101.88,
      "elevation": 320
    },
    {
      "id": "C4X41",
      "name": "Monitor",
      "latitude": 52.02,
      "longitude": -110.55,
      "elevation": 732
    },
    {
      "id": "C5JZ9",
      "name": "Delta Tsawwassen Beach",
      "latitude": 49.01,
      "longitude": -123.09,
      "elevation": 2
    },
    {
      "id": "CF09R",
      "name": "North Pender Island",
      "latitude": 48.76,
      "longitude": -123.29,
      "elevation": 98
    },
    {
      "id": "CTVX4",
      "name": "Estevan",
      "latitude": 49.22,
      "longitude": -102.97,
      "elevation": 581
    },
    {
      "id": "CW952",
      "name": "Salmon Arm Airport",
      "latitude": 50.69,
      "longitude": -119.23,
      "elevation": 527
    },
    {
      "id": "CWAD0",
      "name": "Cape Mudge",
      "latitude": 50.0,
      "longitude": -125.2,
      "elevation": 5
    },
    {
      "id": "CWAU0",
      "name": "Dryad Point / Campbell Island",
      "latitude": 52.1833,
      "longitude": -128.1167,
      "elevation": 4
    },
    {
      "id": "CWCB0",
      "name": "Nanakwa Shoals / Weewanie",
      "latitude": 53.8333,
      "longitude": -128.8317,
      "elevation": 0
    },
    {
      "id": "CWEM0",
      "name": "Egg Island / Wadhams",
      "latitude": 51.2472,
      "longitude": -127.8354,
      "elevation": 14
    },
    {
      "id": "CWFM0",
      "name": "Chatham Point / Rock Bay",
      "latitude": 50.3333,
      "longitude": -125.4333,
      "elevation": 23
    },
    {
      "id": "CWFR0",
      "name": "Horsefly River / Mount Timothy",
      "latitude": 52.0047,
      "longitude": -121.0008,
      "elevation": 846
    },
    {
      "id": "CWIF0",
      "name": "Quatsino Lightstation / Winter Harbour",
      "latitude": 50.4411,
      "longitude": -128.0325,
      "elevation": 21
    },
    {
      "id": "CWJG0",
      "name": "Ivory Island / Campbell Island",
      "latitude": 52.2697,
      "longitude": -128.4067,
      "elevation": 10
    },
    {
      "id": "CWKA0",
      "name": "Grief Point / Powell River",
      "latitude": 49.8046,
      "longitude": -124.5252,
      "elevation": 10
    },
    {
      "id": "CWNJ0",
      "name": "Green Island / Georgetown Mills",
      "latitude": 54.5686,
      "longitude": -130.7083,
      "elevation": 12
    },
    {
      "id": "CWPZ0",
      "name": "Burns Lake",
      "latitude": 54.2333,
      "longitude": -125.7667,
      "elevation": 704
    },
    {
      "id": "CWVB0",
      "name": "Bonilla Island / Oona River",
      "latitude": 53.4928,
      "longitude": -130.6378,
      "elevation": 16
    },
    {
      "id": "CWZD0",
      "name": "Scudder Point / Jedway",
      "latitude": 52.45,
      "longitude": -131.2333,
      "elevation": 5
    },
    {
      "id": "CWZM0",
      "name": "Boat Bluff / Klemtu",
      "latitude": 52.6431,
      "longitude": -128.5242,
      "elevation": 11
    },
    {
      "id": "CXCHL",
      "name": "Topley Landing",
      "latitude": 54.82,
      "longitude": -126.16,
      "elevation": 722
    },
    {
      "id": "CXWHR",
      "name": "Prince George Airport",
      "latitude": 53.89,
      "longitude": -122.67,
      "elevation": 680
    },
    {
      "id": "CYFO0",
      "name": "Flin Flon / Channing",
      "latitude": 54.6833,
      "longitude": -101.6833,
      "elevation": 304
    },
    {
      "id": "CYYI0",
      "name": "Rivers",
      "latitude": 50.0167,
      "longitude": -100.3167,
      "elevation": 473
    },
    {
      "id": "CZVL0",
      "name": "Edmonton / Volmer",
      "latitude": 53.6675,
      "longitude": -113.8544,
      "elevation": 687
    },
    {
      "id": "D510U",
      "name": "Lloydminster Airport",
      "latitude": 53.31,
      "longitude": -110.07,
      "elevation": 669
    },
    {
      "id": "D8PNR",
      "name": "Nitinat River Hatchery",
      "latitude": 48.86,
      "longitude": -124.66,
      "elevation": 15
    },
    {
      "id": "DAL19",
      "name": "Sechelt",
      "latitude": 49.46,
      "longitude": -123.72,
      "elevation": 86
    },
    {
      "id": "DAUI1",
      "name": "Agassiz CDA",
      "latitude": 49.24,
      "longitude": -121.76,
      "elevation": 15
    },
    {
      "id": "DCEJ7",
      "name": "Akun Airport",
      "latitude": 54.1446,
      "longitude": -165.6041,
      "elevation": 25
    },
    {
      "id": "DFH6L",
      "name": "Mcleese Lake Fraserview",
      "latitude": 52.38,
      "longitude": -122.37,
      "elevation": 564
    },
    {
      "id": "DFIIP",
      "name": "Prince George Massey",
      "latitude": 53.9,
      "longitude": -122.79,
      "elevation": 601
    },
    {
      "id": "DHKZ6",
      "name": "Calgary Int'l CS",
      "latitude": 51.11,
      "longitude": -114.0,
      "elevation": 1082
    },
    {
      "id": "DK4IK",
      "name": "Estevan Point",
      "latitude": 49.38,
      "longitude": -126.54,
      "elevation": 6
    },
    {
      "id": "E0CQD",
      "name": "Port Alice",
      "latitude": 50.39,
      "longitude": -127.46,
      "elevation": 21
    },
    {
      "id": "EFM8T",
      "name": "Morrin Agdm",
      "latitude": 51.66,
      "longitude": -112.68,
      "elevation": 836
    },
    {
      "id": "EG278",
      "name": "Cereal AGCM",
      "latitude": 51.28,
      "longitude": -110.82,
      "elevation": 753
    },
    {
      "id": "EG4OT",
      "name": "Fording River Cominco",
      "latitude": 50.15,
      "longitude": -114.86,
      "elevation": 1585
    },
    {
      "id": "EGR9S",
      "name": "Tsawwassen Ferry",
      "latitude": 49.0,
      "longitude": -123.13,
      "elevation": 7
    },
    {
      "id": "EMEDP",
      "name": "Langenburg",
      "latitude": 50.9,
      "longitude": -101.72,
      "elevation": 517
    },
    {
      "id": "ENZB3",
      "name": "Quinsam River Hatchery",
      "latitude": 50.02,
      "longitude": -125.3,
      "elevation": 46
    },
    {
      "id": "EQ4QG",
      "name": "Tulliby Lake AGCM",
      "latitude": 53.66,
      "longitude": -110.08,
      "elevation": 596
    },
    {
      "id": "EQZKJ",
      "name": "Kananaskis Pocaterra",
      "latitude": 50.71,
      "longitude": -115.12,
      "elevation": 1610
    },
    {
      "id": "ET1SW",
      "name": "Ft Steele Dandy Crk",
      "latitude": 49.52,
      "longitude": -115.46,
      "elevation": 856
    },
    {
      "id": "EWZQK",
      "name": "Wimborne AGCM",
      "latitude": 51.94,
      "longitude": -113.59,
      "elevation": 940
    },
    {
      "id": "EZ3MP",
      "name": "Rivercourse AGCM",
      "latitude": 53.02,
      "longitude": -110.1,
      "elevation": 669
    },
    {
      "id": "F4DI2",
      "name": "Galiano North",
      "latitude": 48.99,
      "longitude": -123.57,
      "elevation": 6
    },
    {
      "id": "F4POF",
      "name": "Priddis Observatory",
      "latitude": 50.87,
      "longitude": -114.29,
      "elevation": 1267
    },
    {
      "id": "F5YPJ",
      "name": "Haney Ubc Rf Admin",
      "latitude": 49.26,
      "longitude": -122.57,
      "elevation": 147
    },
    {
      "id": "F6QYX",
      "name": "Claydon",
      "latitude": 49.13,
      "longitude": -109.1,
      "elevation": 975
    },
    {
      "id": "FBAAN",
      "name": "Jellicoe",
      "latitude": 49.67,
      "longitude": -120.33,
      "elevation": 929
    },
    {
      "id": "FC1RN",
      "name": "Victoria Harbour Airport",
      "latitude": 48.42,
      "longitude": -123.39,
      "elevation": 0
    },
    {
      "id": "FG31E",
      "name": "Holland Rock",
      "latitude": 54.17,
      "longitude": -130.36,
      "elevation": 6
    },
    {
      "id": "FK3B7",
      "name": "Regina Gilmour",
      "latitude": 50.57,
      "longitude": -104.83,
      "elevation": 556
    },
    {
      "id": "FNWHB",
      "name": "Lytton Airport",
      "latitude": 50.22,
      "longitude": -121.58,
      "elevation": 225
    },
    {
      "id": "FSK9Y",
      "name": "Revelstoke Airport",
      "latitude": 50.97,
      "longitude": -118.18,
      "elevation": 445
    },
    {
      "id": "FTYWN",
      "name": "Estevan Airport",
      "latitude": 49.21,
      "longitude": -102.97,
      "elevation": 580
    },
    {
      "id": "FZIS8",
      "name": "Golf",
      "latitude": 47.33,
      "longitude": -112.1,
      "elevation": 1311
    },
    {
      "id": "G1BRK",
      "name": "Princeton Airport",
      "latitude": 49.47,
      "longitude": -120.51,
      "elevation": 702
    },
    {
      "id": "G94VL",
      "name": "Saanichton CDA",
      "latitude": 48.62,
      "longitude": -123.42,
      "elevation": 61
    },
    {
      "id": "GAY51",
      "name": "Courtenay Grantham",
      "latitude": 49.76,
      "longitude": -125.0,
      "elevation": 81
    },
    {
      "id": "GBAB3",
      "name": "Foxtrot",
      "latitude": 47.6,
      "longitude": -112.3,
      "elevation": 1343
    },
    {
      "id": "GBEZ8",
      "name": "Leroy",
      "latitude": 52.0,
      "longitude": -104.63,
      "elevation": 535
    },
    {
      "id": "GDN32",
      "name": "Manyberries AGCM",
      "latitude": 49.36,
      "longitude": -110.68,
      "elevation": 927
    },
    {
      "id": "GFLVD",
      "name": "Simonette",
      "latitude": 54.42,
      "longitude": -117.74,
      "elevation": 884
    },
    {
      "id": "GH3XX",
      "name": "Cowichan Lake Forestry",
      "latitude": 48.82,
      "longitude": -124.13,
      "elevation": 177
    },
    {
      "id": "GIRXO",
      "name": "Beechy",
      "latitude": 50.83,
      "longitude": -107.31,
      "elevation": 660
    },
    {
      "id": "GJHHM",
      "name": "Lytton 2",
      "latitude": 50.26,
      "longitude": -121.61,
      "elevation": 174
    },
    {
      "id": "GQTLY",
      "name": "Fort Assiniboine AGCM",
      "latitude": 54.41,
      "longitude": -114.77,
      "elevation": 676
    },
    {
      "id": "GRL7R",
      "name": "New Sarepta AGCM",
      "latitude": 53.26,
      "longitude": -113.17,
      "elevation": 765
    },
    {
      "id": "GSH3K",
      "name": "Chemainus",
      "latitude": 48.94,
      "longitude": -123.74,
      "elevation": 75
    },
    {
      "id": "GVQ4D",
      "name": "Alberni Robertson Creek",
      "latitude": 49.34,
      "longitude": -124.98,
      "elevation": 74
    },
    {
      "id": "H0SZA",
      "name": "Maple Ridge Ferguson Avenue",
      "latitude": 49.21,
      "longitude": -122.48,
      "elevation": 150
    },
    {
      "id": "H18ON",
      "name": "Hope Slide Airport",
      "latitude": 49.28,
      "longitude": -121.24,
      "elevation": 688
    },
    {
      "id": "H5X3C",
      "name": "Lima - Judith Gap",
      "latitude": 46.7,
      "longitude": -109.7,
      "elevation": 1414
    },
    {
      "id": "H7I3L",
      "name": "Viking North 3",
      "latitude": 53.28,
      "longitude": -111.77,
      "elevation": 676
    },
    {
      "id": "H7PSN",
      "name": "108 Mile House Abel Lake",
      "latitude": 51.62,
      "longitude": -121.26,
      "elevation": 1005
    },
    {
      "id": "H8JAU",
      "name": "Lethbridge Demo Farm Agdm",
      "latitude": 49.68,
      "longitude": -112.75,
      "elevation": 903
    },
    {
      "id": "HIKAQ",
      "name": "Carrot Creek",
      "latitude": 53.62,
      "longitude": -115.89,
      "elevation": 861
    },
    {
      "id": "HJ26V",
      "name": "Little Qualicum Hatchery",
      "latitude": 49.35,
      "longitude": -124.51,
      "elevation": 30
    },
    {
      "id": "HO4R3",
      "name": "Pincher Creek",
      "latitude": 49.52,
      "longitude": -114.0,
      "elevation": 1190
    },
    {
      "id": "HPVH7",
      "name": "Atmore Agdm",
      "latitude": 54.78,
      "longitude": -112.83,
      "elevation": 574
    },
    {
      "id": "HR6IJ",
      "name": "Evansburg2 AGCM",
      "latitude": 53.61,
      "longitude": -115.06,
      "elevation": 785
    },
    {
      "id": "HVJTT",
      "name": "Picture Butte West",
      "latitude": 49.87,
      "longitude": -112.79,
      "elevation": 901
    },
    {
      "id": "HWXDL",
      "name": "Silver Creek",
      "latitude": 50.55,
      "longitude": -119.35,
      "elevation": 419
    },
    {
      "id": "HXYRZ",
      "name": "Okanagan Centre",
      "latitude": 50.06,
      "longitude": -119.45,
      "elevation": 370
    },
    {
      "id": "HYJ40",
      "name": "Lister",
      "latitude": 49.03,
      "longitude": -116.46,
      "elevation": 660
    },
    {
      "id": "I07JK",
      "name": "Rainier AGCM",
      "latitude": 50.37,
      "longitude": -112.12,
      "elevation": 765
    },
    {
      "id": "I1S9K",
      "name": "Nelson Ne",
      "latitude": 49.59,
      "longitude": -117.21,
      "elevation": 570
    },
    {
      "id": "I5VMQ",
      "name": "Vanderhoof",
      "latitude": 54.03,
      "longitude": -124.02,
      "elevation": 638
    },
    {
      "id": "I5YZM",
      "name": "Mud Bay",
      "latitude": 49.47,
      "longitude": -124.79,
      "elevation": 4
    },
    {
      "id": "IAK06",
      "name": "Hinton Valley",
      "latitude": 53.4,
      "longitude": -117.54,
      "elevation": 1011
    },
    {
      "id": "IH1Y3",
      "name": "Blackie AGCM",
      "latitude": 50.55,
      "longitude": -113.64,
      "elevation": 1019
    },
    {
      "id": "II1OK",
      "name": "Kitimat 2",
      "latitude": 54.01,
      "longitude": -128.71,
      "elevation": 17
    },
    {
      "id": "IKW0U",
      "name": "Pelly 2",
      "latitude": 51.73,
      "longitude": -101.9,
      "elevation": 499
    },
    {
      "id": "IMXD1",
      "name": "Standard AGCM",
      "latitude": 51.23,
      "longitude": -112.98,
      "elevation": 901
    },
    {
      "id": "IQDF0",
      "name": "Kitimat Hatchery",
      "latitude": 54.04,
      "longitude": -128.68,
      "elevation": 11
    },
    {
      "id": "IS6IV",
      "name": "Yoho Np Ohara Lake",
      "latitude": 51.36,
      "longitude": -116.34,
      "elevation": 2025
    },
    {
      "id": "ISL77",
      "name": "Yellow Grass North",
      "latitude": 49.82,
      "longitude": -104.18,
      "elevation": 578
    },
    {
      "id": "IUI29",
      "name": "Bowen Island Sunset Park",
      "latitude": 49.36,
      "longitude": -123.4,
      "elevation": 185
    },
    {
      "id": "IWZU0",
      "name": "Kinsella Researc Station",
      "latitude": 53.05,
      "longitude": -111.55,
      "elevation": 701
    },
    {
      "id": "IXHCF",
      "name": "Sewall Masset Inlet",
      "latitude": 53.76,
      "longitude": -132.3,
      "elevation": 3
    },
    {
      "id": "IY4EJ",
      "name": "Sun Peaks Mountain",
      "latitude": 50.9,
      "longitude": -119.91,
      "elevation": 1847
    },
    {
      "id": "IZ20B",
      "name": "Zeballos Muraude Creek",
      "latitude": 50.05,
      "longitude": -126.78,
      "elevation": 103
    },
    {
      "id": "IZITU",
      "name": "Port Alberni Cox Lake",
      "latitude": 49.2,
      "longitude": -124.75,
      "elevation": 100
    },
    {
      "id": "J319D",
      "name": "New Denver",
      "latitude": 50.0,
      "longitude": -117.37,
      "elevation": 568
    },
    {
      "id": "J5D8P",
      "name": "Big Horn County Airport",
      "latitude": 45.7444,
      "longitude": -107.6604,
      "elevation": 922
    },
    {
      "id": "J69AW",
      "name": "Houston",
      "latitude": 54.4,
      "longitude": -126.67,
      "elevation": 610
    },
    {
      "id": "J893H",
      "name": "Ravalli County Airport",
      "latitude": 46.2546,
      "longitude": -114.1246,
      "elevation": 1110
    },
    {
      "id": "J8M2S",
      "name": "Hudson Bay 13w",
      "latitude": 52.88,
      "longitude": -102.58,
      "elevation": 422
    },
    {
      "id": "JF66D",
      "name": "Buffalo",
      "latitude": 45.6044,
      "longitude": -103.5464,
      "elevation": 916
    },
    {
      "id": "JH7VD",
      "name": "Gabriola Island",
      "latitude": 49.15,
      "longitude": -123.73,
      "elevation": 46
    },
    {
      "id": "JLSM9",
      "name": "Kirriemuir AGCM",
      "latitude": 51.91,
      "longitude": -110.36,
      "elevation": 711
    },
    {
      "id": "JMVW6",
      "name": "N Van Seymour Hatchery",
      "latitude": 49.44,
      "longitude": -122.97,
      "elevation": 177
    },
    {
      "id": "JNQ45",
      "name": "Wetaskiwin AGCM",
      "latitude": 52.98,
      "longitude": -113.44,
      "elevation": 774
    },
    {
      "id": "JOVI3",
      "name": "Raynesford",
      "latitude": 47.3,
      "longitude": -110.8,
      "elevation": 1219
    },
    {
      "id": "JUL7G",
      "name": "Fort St James",
      "latitude": 54.46,
      "longitude": -124.29,
      "elevation": 688
    },
    {
      "id": "JUYK7",
      "name": "Lake Cowichan",
      "latitude": 48.83,
      "longitude": -124.05,
      "elevation": 171
    },
    {
      "id": "JVUQY",
      "name": "Saskatoon Src",
      "latitude": 52.15,
      "longitude": -106.6,
      "elevation": 497
    },
    {
      "id": "K08D0",
      "name": "Stanley",
      "latitude": 48.3008,
      "longitude": -102.4064,
      "elevation": 684
    },
    {
      "id": "K0WWX",
      "name": "Flin Flon",
      "latitude": 54.68,
      "longitude": -101.68,
      "elevation": 304
    },
    {
      "id": "K20U0",
      "name": "Beach",
      "latitude": 46.9252,
      "longitude": -103.9821,
      "elevation": 840
    },
    {
      "id": "K22EQ",
      "name": "Bella Coola Airport",
      "latitude": 52.39,
      "longitude": -126.6,
      "elevation": 36
    },
    {
      "id": "K65S0",
      "name": "Bonners Ferry / Threemile Corner",
      "latitude": 48.726,
      "longitude": -116.2952,
      "elevation": 712
    },
    {
      "id": "K7L20",
      "name": "Linton",
      "latitude": 46.2206,
      "longitude": -100.2456,
      "elevation": 542
    },
    {
      "id": "K8S00",
      "name": "Browning / Starr School",
      "latitude": 48.6014,
      "longitude": -113.1148,
      "elevation": 1420
    },
    {
      "id": "KAWO0",
      "name": "Arlington / Airway Mobile Home Park",
      "latitude": 48.1608,
      "longitude": -122.159,
      "elevation": 43
    },
    {
      "id": "KBFI0",
      "name": "Seattle / South Park",
      "latitude": 47.53,
      "longitude": -122.302,
      "elevation": 6
    },
    {
      "id": "KBHK0",
      "name": "Baker",
      "latitude": 46.3476,
      "longitude": -104.2594,
      "elevation": 908
    },
    {
      "id": "KBLI0",
      "name": "Bellingham / Marietta-Alderwood",
      "latitude": 48.7927,
      "longitude": -122.5375,
      "elevation": 52
    },
    {
      "id": "KBPP0",
      "name": "Bowman",
      "latitude": 46.187,
      "longitude": -103.4281,
      "elevation": 902
    },
    {
      "id": "KBVS0",
      "name": "Burlington / Fredonia",
      "latitude": 48.4709,
      "longitude": -122.4209,
      "elevation": 44
    },
    {
      "id": "KBZN0",
      "name": "Bozeman / Belgrade Village Mobile Home Park",
      "latitude": 45.7776,
      "longitude": -111.152,
      "elevation": 1363
    },
    {
      "id": "KCII0",
      "name": "Choteau / Truchot Hill",
      "latitude": 47.8283,
      "longitude": -112.1683,
      "elevation": 1203
    },
    {
      "id": "KCLM0",
      "name": "Port Angeles / Firwest Mobile Home Park",
      "latitude": 48.1202,
      "longitude": -123.4997,
      "elevation": 89
    },
    {
      "id": "KCLS0",
      "name": "Chehalis-Centralia",
      "latitude": 46.677,
      "longitude": -122.9827,
      "elevation": 54
    },
    {
      "id": "KCM3M",
      "name": "Hope Airport",
      "latitude": 49.37,
      "longitude": -121.5,
      "elevation": 39
    },
    {
      "id": "KCOE0",
      "name": "Coeur D'alene / Hayden",
      "latitude": 47.7743,
      "longitude": -116.8196,
      "elevation": 707
    },
    {
      "id": "KCZK0",
      "name": "Cascade Locks",
      "latitude": 45.6769,
      "longitude": -121.8789,
      "elevation": 46
    },
    {
      "id": "KD070",
      "name": "Faith",
      "latitude": 45.0361,
      "longitude": -102.0199,
      "elevation": 788
    },
    {
      "id": "KD500",
      "name": "Crosby",
      "latitude": 48.9285,
      "longitude": -103.2973,
      "elevation": 594
    },
    {
      "id": "KD570",
      "name": "Glen Ullin",
      "latitude": 46.8128,
      "longitude": -101.8602,
      "elevation": 637
    },
    {
      "id": "KD600",
      "name": "Tioga",
      "latitude": 48.3803,
      "longitude": -102.8974,
      "elevation": 692
    },
    {
      "id": "KDEW0",
      "name": "Deer Park",
      "latitude": 47.9667,
      "longitude": -117.4333,
      "elevation": 669
    },
    {
      "id": "KDLS0",
      "name": "The Dalles / Dallesport",
      "latitude": 45.6186,
      "longitude": -121.1673,
      "elevation": 75
    },
    {
      "id": "KEKS0",
      "name": "Ennis / Cameron",
      "latitude": 45.2744,
      "longitude": -111.6489,
      "elevation": 1653
    },
    {
      "id": "KELN0",
      "name": "Ellensburg",
      "latitude": 47.033,
      "longitude": -120.5307,
      "elevation": 538
    },
    {
      "id": "KFCT0",
      "name": "Yakima / Pomona Heights",
      "latitude": 46.6665,
      "longitude": -120.454,
      "elevation": 418
    },
    {
      "id": "KGDV0",
      "name": "Glendive / Landtsheim (Historical)",
      "latitude": 47.1387,
      "longitude": -104.8072,
      "elevation": 749
    },
    {
      "id": "KGFA0",
      "name": "Great Falls / Malmstrom Air Force Base",
      "latitude": 47.5047,
      "longitude": -111.1873,
      "elevation": 1058
    },
    {
      "id": "KGIC0",
      "name": "Grangeville",
      "latitude": 45.9426,
      "longitude": -116.1234,
      "elevation": 1010
    },
    {
      "id": "KHEI0",
      "name": "Hettinger",
      "latitude": 46.0149,
      "longitude": -102.656,
      "elevation": 825
    },
    {
      "id": "KHIO0",
      "name": "Portland / Orenco",
      "latitude": 45.5406,
      "longitude": -122.9502,
      "elevation": 63
    },
    {
      "id": "KHQM0",
      "name": "Hoquiam / Aberdeen / Grays Harbor City",
      "latitude": 46.9712,
      "longitude": -123.9366,
      "elevation": 6
    },
    {
      "id": "KHRI0",
      "name": "Hermiston Municipal Airport",
      "latitude": 45.8282,
      "longitude": -119.2592,
      "elevation": 196
    },
    {
      "id": "KHTNQ",
      "name": "Kamloops Pratt Road",
      "latitude": 50.63,
      "longitude": -120.17,
      "elevation": 729
    },
    {
      "id": "KHZE0",
      "name": "Hazen",
      "latitude": 47.2899,
      "longitude": -101.581,
      "elevation": 553
    },
    {
      "id": "KJDN0",
      "name": "Jordan",
      "latitude": 47.3287,
      "longitude": -106.9527,
      "elevation": 811
    },
    {
      "id": "KJSY0",
      "name": "Joseph",
      "latitude": 45.3595,
      "longitude": -117.2538,
      "elevation": 1256
    },
    {
      "id": "KLEM0",
      "name": "Lemmon",
      "latitude": 45.9187,
      "longitude": -102.1062,
      "elevation": 784
    },
    {
      "id": "KLGD0",
      "name": "La Grande / Island City",
      "latitude": 45.2902,
      "longitude": -118.0071,
      "elevation": 828
    },
    {
      "id": "KLVM0",
      "name": "Livingston / Urback Place",
      "latitude": 45.6994,
      "longitude": -110.4483,
      "elevation": 1420
    },
    {
      "id": "KLWT0",
      "name": "Lewistown / Lewlistown [Misspelling] / Lewistown Heights",
      "latitude": 47.0493,
      "longitude": -109.4667,
      "elevation": 1271
    },
    {
      "id": "KM750",
      "name": "Malta / Riverside Trailer Court",
      "latitude": 48.3669,
      "longitude": -107.9193,
      "elevation": 687
    },
    {
      "id": "KMBG0",
      "name": "Mobridge",
      "latitude": 45.5463,
      "longitude": -100.4063,
      "elevation": 523
    },
    {
      "id": "KMEH0",
      "name": "Meacham",
      "latitude": 45.5167,
      "longitude": -118.4,
      "elevation": 1236
    },
    {
      "id": "KMIB0",
      "name": "Minot / Minot Air Force Base",
      "latitude": 48.4158,
      "longitude": -101.358,
      "elevation": 508
    },
    {
      "id": "KMLP0",
      "name": "Mullan Pass / Borax (Historical)",
      "latitude": 47.45,
      "longitude": -115.6667,
      "elevation": 1837
    },
    {
      "id": "KMMV0",
      "name": "McMinnville / Eola Village",
      "latitude": 45.1945,
      "longitude": -123.1361,
      "elevation": 50
    },
    {
      "id": "KMOT0",
      "name": "Minot",
      "latitude": 48.2576,
      "longitude": -101.278,
      "elevation": 523
    },
    {
      "id": "KMWH0",
      "name": "Moses Lake / Moses Lake North",
      "latitude": 47.2086,
      "longitude": -119.3191,
      "elevation": 362
    },
    {
      "id": "KN600",
      "name": "Garrison",
      "latitude": 47.65,
      "longitude": -101.4333,
      "elevation": 587
    },
    {
      "id": "KNRA0",
      "name": "Coupeville / Keystone",
      "latitude": 48.1833,
      "longitude": -122.6333,
      "elevation": 61
    },
    {
      "id": "KOKH0",
      "name": "Oak Harbor / Penn Cove Park",
      "latitude": 48.2515,
      "longitude": -122.6737,
      "elevation": 59
    },
    {
      "id": "KOLF0",
      "name": "Wolf Point / Pleasant Valley (Historical)",
      "latitude": 48.0945,
      "longitude": -105.5751,
      "elevation": 606
    },
    {
      "id": "KOMK0",
      "name": "Omak / Cherokee",
      "latitude": 48.4644,
      "longitude": -119.5181,
      "elevation": 398
    },
    {
      "id": "KORS0",
      "name": "Eastsound",
      "latitude": 48.7083,
      "longitude": -122.9106,
      "elevation": 9
    },
    {
      "id": "KP690",
      "name": "Lowell",
      "latitude": 46.1442,
      "longitude": -115.5964,
      "elevation": 451
    },
    {
      "id": "KPAE0",
      "name": "Everett / Loganberry Mobile Home Park",
      "latitude": 47.907,
      "longitude": -122.2816,
      "elevation": 185
    },
    {
      "id": "KPLU0",
      "name": "Puyallup / Country Aire Manor Mobile Home Park",
      "latitude": 47.1039,
      "longitude": -122.2872,
      "elevation": 164
    },
    {
      "id": "KPO10",
      "name": "Poplar",
      "latitude": 48.1344,
      "longitude": -105.1621,
      "elevation": 621
    },
    {
      "id": "KPSC0",
      "name": "Pasco",
      "latitude": 46.2647,
      "longitude": -119.119,
      "elevation": 125
    },
    {
      "id": "KPSTS",
      "name": "Acadia Valley",
      "latitude": 51.07,
      "longitude": -110.32,
      "elevation": 735
    },
    {
      "id": "KPUW0",
      "name": "Pullman / Sunshine",
      "latitude": 46.7439,
      "longitude": -117.1096,
      "elevation": 779
    },
    {
      "id": "KPWD0",
      "name": "Plentywood",
      "latitude": 48.7886,
      "longitude": -104.5232,
      "elevation": 690
    },
    {
      "id": "KPWT0",
      "name": "Bremerton / Belfair",
      "latitude": 47.4903,
      "longitude": -122.7648,
      "elevation": 135
    },
    {
      "id": "KQS5A",
      "name": "Fauquier",
      "latitude": 49.87,
      "longitude": -118.07,
      "elevation": 490
    },
    {
      "id": "KR6LU",
      "name": "Queenstown",
      "latitude": 50.6,
      "longitude": -112.8,
      "elevation": 941
    },
    {
      "id": "KRLD0",
      "name": "Richland",
      "latitude": 46.3056,
      "longitude": -119.3042,
      "elevation": 120
    },
    {
      "id": "KRNT0",
      "name": "Renton",
      "latitude": 47.4931,
      "longitude": -122.2157,
      "elevation": 10
    },
    {
      "id": "KRUG0",
      "name": "Rugby",
      "latitude": 48.3904,
      "longitude": -100.0243,
      "elevation": 472
    },
    {
      "id": "KS250",
      "name": "Watford City",
      "latitude": 47.7966,
      "longitude": -103.2552,
      "elevation": 643
    },
    {
      "id": "KS520",
      "name": "Winthrop / Horseshoe Mobile Home Park",
      "latitude": 48.4249,
      "longitude": -120.1459,
      "elevation": 520
    },
    {
      "id": "KS590",
      "name": "Libby / Pioneer Junction",
      "latitude": 48.2838,
      "longitude": -115.4902,
      "elevation": 794
    },
    {
      "id": "KS710",
      "name": "Chinook / Sprinkle Trailer Court",
      "latitude": 48.5921,
      "longitude": -109.2506,
      "elevation": 736
    },
    {
      "id": "KS850",
      "name": "Culbertson",
      "latitude": 48.1533,
      "longitude": -104.5041,
      "elevation": 595
    },